,Inspection_id,DBA_Name,Risk,Address,Zip,Inspection_Date,Results,Latitude,Longitude
0,2268564,PIZZERIA AROMA,Risk 1 (High),5350 N BROADWAY ,60640,2019-02-26T00:00:00,Fail,41.9796508,-87.66010597
1,2268560,PIZZERIA AROMA,Risk 1 (High),5350 N BROADWAY ,60640,2019-02-26T00:00:00,Fail,41.9796508,-87.66010597
2,2268527,CAFECITO,Risk 1 (High),401-403 W FULLERTON PKWY ,60614,2019-02-26T00:00:00,Pass w/ Conditions,41.92550054,-87.6391788
3,2268526,JOHNSON'S REAL ICE CREAM,Risk 2 (Medium),2951 N BROADWAY ,60657,2019-02-26T00:00:00,Pass w/ Conditions,41.9364147,-87.64412799
4,2268524,TONY'S KITCHEN #2 INC.,Risk 1 (High),6325 S CENTRAL AVE ,60638,2019-02-26T00:00:00,Pass w/ Conditions,41.7772013,-87.76154175
5,2268514,EL SABOR POBLANO,Risk 1 (High),7027 N CLARK ST ,60626,2019-02-25T00:00:00,Pass w/ Conditions,42.00985571,-87.67401205
6,2268508,BOOILL GALBI,Risk 1 (High),3346 W BRYN MAWR AVE ,60659,2019-02-25T00:00:00,No Entry,41.98312305,-87.71321223
7,2268506,THE GARAGE BAR AND SANDWICHES,Risk 1 (High),6154 N MILWAUKEE AVE ,60646,2019-02-25T00:00:00,No Entry,41.99354322,-87.78443474
8,2268512,RUKIYO'S,Risk 1 (High),939 N ORLEANS ST ,60610,2019-02-25T00:00:00,Pass,41.90014977,-87.63716135
9,2268505,"HOANH LONG RESTAURANT, INC.",Risk 1 (High),6148-6152 N LINCOLN AVE ,60659,2019-02-25T00:00:00,No Entry,41.99377083,-87.71310538
10,2268510,EL REY DE LA COSTA,Risk 1 (High),3548 W LAWRENCE AVE ,60625,2019-02-25T00:00:00,Fail,41.96846504,-87.7178039
11,2268504,LATIN PATIO,Risk 1 (High),3113-3115 N CENTRAL AVE ,60634,2019-02-25T00:00:00,Pass w/ Conditions,41.93718566,-87.76630216
12,2262183,IYANZE,Risk 1 (High),4623-4627 N BROADWAY ,60640,2019-02-25T00:00:00,Pass w/ Conditions,41.96606299,-87.65773412
13,2268495,GIORDANO'S RESTAURANT,Risk 1 (High),6314 S CICERO AVE ,60638,2019-02-25T00:00:00,Pass,41.77793892,-87.74242376
14,2268487,LITTLE KITCHEN,Risk 1 (High),4104 N SHERIDAN RD ,60613,2019-02-25T00:00:00,Fail,41.95701306,-87.65476211
15,2268477,YVOLINA'S TAMALES+GROCERIES,Risk 1 (High),814 W 18TH ST ,60608,2019-02-25T00:00:00,Pass w/ Conditions,41.85819003,-87.64731369
16,2268481,Mom's Old Recipe Mexican Restaurant,Risk 1 (High),5760 N MILWAUKEE AVE ,60646,2019-02-25T00:00:00,Pass w/ Conditions,41.98614682,-87.77748161
17,2268479,BANGKOK THAI CUISINE,Risk 1 (High),6144 N LINCOLN AVE ,60659,2019-02-25T00:00:00,Pass w/ Conditions,41.99368669,-87.71296649
18,2268469,ROSATI'S PIZZA,Risk 1 (High),3150 W 111TH ST ,60655,2019-02-25T00:00:00,Fail,41.69168161,-87.70043191
19,2268462,BOBTAIL SODA FOUNTAIN,Risk 1 (High),2951 N BROADWAY ,60657,2019-02-25T00:00:00,Out of Business,41.9364147,-87.64412799
20,2268456,DUNKIN  DONUTS,Risk 2 (Medium),7240 W DEVON AVE ,60631,2019-02-25T00:00:00,Out of Business,41.99759826,-87.80825276
21,2268457,BURRITO STATION,Risk 1 (High),2750 W 111TH ST ,60655,2019-02-25T00:00:00,Pass w/ Conditions,41.69180292,-87.69038573
22,2268455,TAQUERIA KAIROS,Risk 1 (High),5526 S ARCHER AVE ,60638,2019-02-25T00:00:00,Pass w/ Conditions,41.79807544,-87.74775274
23,2268452,Churro Factory Inc,Risk 2 (Medium),2214 S Wolcott AVE ,60608,2019-02-25T00:00:00,Pass w/ Conditions,41.85172699,-87.67352527
24,2268442,"Jubilee Coffee, Inc / DBA Dunkin' Donuts",Risk 2 (Medium),7240 W DEVON AVE ,60631,2019-02-25T00:00:00,Pass w/ Conditions,41.99759826,-87.80825276
25,2268441,JOHNSON'S REAL ICE CREAM,Risk 2 (Medium),2951 N BROADWAY ,60657,2019-02-25T00:00:00,Fail,41.9364147,-87.64412799
26,2268434,PACOS TACOS CHICAGO,Risk 1 (High),7059 S HALSTED ST ,60621,2019-02-25T00:00:00,Fail,41.76529571,-87.64426896
27,2268420,POPEYES CHICKEN,Risk 1 (High),156 N WABASH AVE FL 1,60601,2019-02-22T00:00:00,Not Ready,41.88471488,-87.62640013
28,2268426,YOUNG'S RESTAURANT,Risk 1 (High),3949 N ASHLAND AVE ,60613,2019-02-22T00:00:00,Fail,41.95387291,-87.66888934
29,2268414,SUBWAY,Risk 1 (High),2811 S KEDZIE AVE ,60623,2019-02-22T00:00:00,Pass w/ Conditions,41.84053695,-87.70477333
30,2268415,ROAD RANGER #187,Risk 1 (High),3401-3417 S CALIFORNIA AVE ,60608,2019-02-22T00:00:00,Pass w/ Conditions,41.8321338,-87.69472806
31,2268412,CHARCOAL GUACAMOLE INC.,Risk 1 (High),6221 N CLARK ST ,60660,2019-02-22T00:00:00,Pass w/ Conditions,41.99516694,-87.67003398
32,2268401,JERSEY MIKE'S SUBS,Risk 1 (High),200 W MONROE ST ,60606,2019-02-22T00:00:00,Pass,41.88076896,-87.63387497
33,2268405,ORIENTAL CHEF,Risk 1 (High),901 W 87TH ST ,60620,2019-02-22T00:00:00,Fail,41.73592705,-87.64616369
34,2268396,T JOELS FAMILY RESTAURANT,Risk 1 (High),1928 W CERMAK RD ,60608,2019-02-22T00:00:00,Pass w/ Conditions,41.85230417,-87.67458001
35,2268397,JENI'S ILLINOIS LLC,Risk 1 (High),908 W RANDOLPH ST ,60607,2019-02-22T00:00:00,Not Ready,41.88447026,-87.65018387
36,2268387,MCCORMICK PLACE - SOUTH BUILDING - SAVOR,Risk 1 (High),2300 S LAKE SHORE DR ,60616,2019-02-22T00:00:00,Pass w/ Conditions,41.85101978,-87.61388212
37,2268395,DAN'S BAKERY& EATERY,Risk 1 (High),2521-23 W 79TH ST ,60652,2019-02-22T00:00:00,Pass w/ Conditions,41.74988031,-87.68619277
38,2268386,SUBWAY,Risk 1 (High),51 W 79TH ST ,60620,2019-02-22T00:00:00,Pass,41.75081393,-87.62671101
39,2268381,LITO'S EMPANADAS,Risk 2 (Medium),100 W RANDOLPH ST ,60601,2019-02-22T00:00:00,Pass w/ Conditions,41.88458627,-87.63101045
40,2268382,CAFE BONHOMME / BEATNIX BY THE RIVER,Risk 1 (High),180 N WACKER DR ,60606,2019-02-22T00:00:00,Pass w/ Conditions,41.88524323,-87.63716479
41,2268378,CHICAGO WINGS & GYROS,Risk 1 (High),2145 S PULASKI RD ,60623,2019-02-22T00:00:00,Pass w/ Conditions,41.85193458,-87.72462254
42,2268380,CAFE BONHOMME / BEATNIX BY THE RIVER,Risk 1 (High),180 N WACKER DR ,60606,2019-02-22T00:00:00,Pass w/ Conditions,41.88524323,-87.63716479
43,2268376,S & G GRILL,Risk 1 (High),3000 N LINCOLN AVE ,60657,2019-02-22T00:00:00,Pass w/ Conditions,41.93612294,-87.66391411
44,2268365,NORWOOD RESTAURANT,Risk 1 (High),6101 N NORTHWEST HWY ,60631,2019-02-22T00:00:00,Pass w/ Conditions,41.99247686,-87.79900315
45,2268363,LOS OLIVO'S,Risk 1 (High),3400 W 31ST ST ,60623,2019-02-22T00:00:00,Pass w/ Conditions,41.83725399,-87.7097778
46,2268361,Subway,Risk 1 (High),3675 W Grand AVE ,60651,2019-02-21T00:00:00,Pass w/ Conditions,41.90304578,-87.7188893
47,2268359,MIN MIN CAFE,Risk 1 (High),1465 W IRVING PARK RD ,60613,2019-02-21T00:00:00,Fail,41.95420978,-87.66676356
48,2268355,KAM FUNG RESTAURANT,Risk 1 (High),216 W 22ND PL ,60616,2019-02-21T00:00:00,Pass,41.85227106,-87.63272836
49,2268356,PIZZA NOVA EXPRESS,Risk 1 (High),3836 W 79TH ST ,60652,2019-02-21T00:00:00,Pass,41.74971286,-87.71976333
50,2268346,Chipotle Mexican Grill,Risk 1 (High),2640 N NARRAGANSETT AVE ,60639,2019-02-21T00:00:00,Pass,41.92856273,-87.78577116
51,2268343,JERSEY MIKE'S SUBS,Risk 1 (High),200 W MONROE ST ,60606,2019-02-21T00:00:00,Fail,41.88076896,-87.63387497
52,2268344,WingStop,Risk 1 (High),2344 W CERMAK RD ,60608,2019-02-21T00:00:00,Pass w/ Conditions,41.85214362,-87.68504521
53,2268351,MR V'S CARRYOUT,Risk 1 (High),5285 N ELSTON AVE ,60630,2019-02-21T00:00:00,Pass w/ Conditions,41.97713934,-87.75458801
54,2268341,EL MICHOACANITO,Risk 1 (High),4311-4315 N KEDZIE AVE ,60618,2019-02-21T00:00:00,Pass w/ Conditions,41.95974034,-87.70805402
55,2268339,KEN'S,Risk 1 (High),10522 S WESTERN AVE ,60643,2019-02-21T00:00:00,Pass w/ Conditions,41.70201547,-87.68162963
56,2268347,STAN'S CORNER INC,Risk 1 (High),5960 S ARCHER AVE ,60638,2019-02-21T00:00:00,Pass w/ Conditions,41.79541424,-87.76506224
57,2268336,SABOR A CAFE RESTAURANT,Risk 1 (High),2435 W PETERSON AVE ,60659,2019-02-21T00:00:00,Fail,41.9903811,-87.6910996
58,2268327,MAKOTO,Risk 1 (High),5854-5856 N LINCOLN AVE ,60659,2019-02-21T00:00:00,Fail,41.98779176,-87.70325097
59,2268326,CAPT'N NEMO,Risk 1 (High),7367 N CLARK ST ,60626,2019-02-21T00:00:00,Pass w/ Conditions,42.01570881,-87.67500337
60,2268332,EL TACO SABROSO #1 INC,Risk 1 (High),8346 S PULASKI RD ,60652,2019-02-21T00:00:00,Pass w/ Conditions,41.74074622,-87.72177864
61,2268318,THE PIZZA CORNER,Risk 1 (High),6322 N BROADWAY ,60660,2019-02-21T00:00:00,Pass w/ Conditions,41.99708065,-87.66061649
62,2268317,JEONG,Risk 3 (Low),1460 W CHICAGO AVE ,60642,2019-02-21T00:00:00,Pass w/ Conditions,41.89622225,-87.66479278
63,2268324,"1st HUNAN SPRING, INC",Risk 1 (High),5279 N ELSTON AVE ,60630,2019-02-21T00:00:00,Pass w/ Conditions,41.97704127,-87.75442839
64,2268319,CAFE BONHOMME / BEATNIX BY THE RIVER,Risk 1 (High),180 N WACKER DR ,60606,2019-02-21T00:00:00,Fail,41.88524323,-87.63716479
65,2268311,AMERICANOS,Risk 1 (High),11060 S WESTERN AVE ,60643,2019-02-21T00:00:00,Pass w/ Conditions,41.69210916,-87.68131144
66,2268308,MR. POLLO,Risk 1 (High),5222 W DIVERSEY AVE ,60639,2019-02-21T00:00:00,Pass w/ Conditions,41.93149805,-87.75738202
67,2268307,ROJO GUSANO,Risk 1 (High),3830 W LAWRENCE AVE ,60625,2019-02-21T00:00:00,No Entry,41.96839043,-87.72444786
68,2268313,JEONG,Risk 1 (High),1460 W CHICAGO AVE ,60642,2019-02-21T00:00:00,Pass w/ Conditions,41.89622225,-87.66479278
69,2268321,EL TACO AZTECA,Risk 1 (High),2151 W CERMAK RD ,60608,2019-02-21T00:00:00,Pass w/ Conditions,41.8519948,-87.68031325
70,2268314,THE GOLDEN VILLAGE,Risk 1 (High),3619 W NORTH AVE ,60647,2019-02-21T00:00:00,Fail,41.90987367,-87.7175329
71,2268310,CAFE BONHOMME / BEATNIX BY THE RIVER,Risk 1 (High),180 N WACKER DR ,60606,2019-02-21T00:00:00,Fail,41.88524323,-87.63716479
72,2268293,POPEYE'S #831,Risk 1 (High),1959 W HOWARD ST ,60626,2019-02-21T00:00:00,Pass w/ Conditions,42.01933311,-87.68002153
73,2268300,ZIGGY'S SIDE DOOR PUB & DELI,Risk 1 (High),6158 W 63RD ST ,60638,2019-02-21T00:00:00,Pass w/ Conditions,41.77787867,-87.77632371
74,2268295,LA TORTA CHILANGA,Risk 1 (High),2152 W CERMAK RD ,60608,2019-02-21T00:00:00,Pass w/ Conditions,41.85221316,-87.68039534
75,2268290,DUNKIN DONUTS,Risk 2 (Medium),6332 N BROADWAY ,60660,2019-02-21T00:00:00,Pass,41.99736196,-87.66063304
76,2268284,FOUR MOON TAVERN,Risk 1 (High),1847 W ROSCOE ST ,60657,2019-02-21T00:00:00,Pass w/ Conditions,41.94314096,-87.67570739
77,2268281,EL SAZON RESTAURANT,Risk 1 (High),2128 W CERMAK RD ,60608,2019-02-21T00:00:00,Out of Business,41.85222861,-87.67948333
78,2268292,ELLY'S PANCAKE HOUSE,Risk 1 (High),5308-5312 N MILWAUKEE AVE ,60630,2019-02-21T00:00:00,Fail,41.97673434,-87.76886264
79,2268280,RESTAURANT MIRO'SS INC.,Risk 1 (High),2128 W CERMAK RD ,60608,2019-02-21T00:00:00,Out of Business,41.85222861,-87.67948333
80,2268279,GUS'S WORLD FAMOUS FRIED CHICKEN,Risk 3 (Low),401 N STATE ST ,60654,2019-02-21T00:00:00,Pass,41.88926542,-87.62786766
81,2268273,PIZZA HUT # 35190,Risk 1 (High),2516 W NORTH AVE ,60647,2019-02-21T00:00:00,Not Ready,41.91039726,-87.69036694
82,2268276,GUS'S WORLD FAMOUS FRIED CHICKEN,Risk 2 (Medium),401 N STATE ST ,60654,2019-02-21T00:00:00,Pass,41.88926542,-87.62786766
83,2268265,ARCHIES,Risk 1 (High),1228 W LOYOLA AVE ,60626,2019-02-21T00:00:00,Pass w/ Conditions,42.00151969,-87.66205199
84,2268266,DUNKIN DONUTS,Risk 2 (Medium),5700 S CICERO AVE ,60638,2019-02-21T00:00:00,Pass,41.78932932,-87.74164564
85,2268267,VELOX COFFEE,Risk 2 (Medium),6206 N BROADWAY ,60660,2019-02-21T00:00:00,Pass,41.99480517,-87.66056031
86,2268261,ELLIOTT'S SEAFOOD AND CHOP HOUSE GRILL,Risk 1 (High),6688-6690 N NORTHWEST HWY ,60631,2019-02-20T00:00:00,No Entry,42.00245899,-87.81587721
87,2268260,POPEYE'S#835,Risk 1 (High),3457 W ROOSEVELT RD ,60624,2019-02-20T00:00:00,Pass w/ Conditions,41.86621302,-87.71278165
88,2268259,Delhi Darbar Kabob House,Risk 1 (High),3010 W Devon AVE ,60659,2019-02-20T00:00:00,No Entry,41.99757606,-87.70500111
89,2268258,POPEYES,Risk 1 (High),3457 W ROOSEVELT RD ,60624,2019-02-20T00:00:00,Out of Business,41.86621302,-87.71278165
90,2268257,BYRONS KITCHENS,Risk 1 (High),1017 W IRVING PARK RD ,60613,2019-02-20T00:00:00,Pass w/ Conditions,41.95436836,-87.65522418
91,2268252,EAT AND RUN  NFP,Risk 1 (High),1733 W 87TH ST ,60620,2019-02-20T00:00:00,No Entry,41.73562916,-87.66684643
92,2268248,JIBARITOS ON HARLEM,Risk 1 (High),3317-3319 N HARLEM AVE ,60634,2019-02-20T00:00:00,Pass,41.94033267,-87.80668213
93,2268249,LUZZAT RESTAURANT INC.,Risk 1 (High),1505 W JARVIS AVE ,60626,2019-02-20T00:00:00,Fail,42.01593541,-87.66839609
94,2268246,ALEX LA MICHOACANA,Risk 1 (High),4819 W Diversey AVE ,60639,2019-02-20T00:00:00,Pass w/ Conditions,41.93141405,-87.74740231
95,2268247,JIANG'S KITCHEN INC.,Risk 1 (High),2740 W 111TH ST ,60655,2019-02-20T00:00:00,Pass w/ Conditions,41.69180631,-87.69007295
96,2268241,ANTOJITOS PUEBLITA INC,Risk 1 (High),3737 W LAWRENCE AVE UNIT E,60625,2019-02-20T00:00:00,Pass w/ Conditions,41.96819486,-87.7222708
97,2268242,SUSHI WORLD,Risk 1 (High),6251 N MCCORMICK RD ,60659,2019-02-20T00:00:00,Pass w/ Conditions,41.99547888,-87.71287527
98,2268240,PEPES RESTAURANT,Risk 1 (High),954 W 87TH ST ,60620,2019-02-20T00:00:00,Fail,41.73611661,-87.64826717
99,2268236,ANNA PURANA FAST FOOD,Risk 1 (High),2608 W DEVON AVE ,60659,2019-02-20T00:00:00,Pass w/ Conditions,41.99774835,-87.69516655
100,2268232,GREAT SEA CHINESE RESTAURANT,Risk 1 (High),3253 W LAWRENCE AVE ,60625,2019-02-20T00:00:00,Pass w/ Conditions,41.9683225,-87.71062111
101,2268234,COLUTA'S PIZZA,Risk 1 (High),4946 W DIVERSEY AVE ,60639,2019-02-20T00:00:00,Pass w/ Conditions,41.9315855,-87.75092912
102,2268231,GREAT SEA CHINESE RESTAURANT,Risk 1 (High),3253 W LAWRENCE AVE ,60625,2019-02-20T00:00:00,Pass w/ Conditions,41.9683225,-87.71062111
103,2268229,Tortuga's Cantina,Risk 1 (High),3220-3224 W LAWRENCE AVE ,60625,2019-02-20T00:00:00,No Entry,41.96855261,-87.70938107
104,2268230,PANERA BREAD,Risk 1 (High),6059 N LINCOLN AVE ,60659,2019-02-20T00:00:00,Pass w/ Conditions,41.99191947,-87.70963133
105,2268226,NORWOOD RESTAURANT,Risk 1 (High),6101 N NORTHWEST HWY ,60631,2019-02-20T00:00:00,Pass w/ Conditions,41.99247686,-87.79900315
106,2268224,BACON & JAM,Risk 1 (High),3335 W 111TH ST ,60655,2019-02-20T00:00:00,Pass w/ Conditions,41.69139894,-87.70472545
107,2268228,MC DONALDS,Risk 2 (Medium),36 W 95TH ST ,60628,2019-02-20T00:00:00,Pass w/ Conditions,41.72180876,-87.62524189
108,2268213,DUNKIN DONUTS,Risk 2 (Medium),5723 N CALIFORNIA AVE ,60659,2019-02-20T00:00:00,Pass w/ Conditions,41.98571759,-87.69909643
109,2262204,SIMI'S,Risk 1 (High),6310 N WESTERN AVE ,60659,2019-02-20T00:00:00,Pass w/ Conditions,41.99628183,-87.68998285
110,2262200,TACO BELL,Risk 1 (High),4614 S DAMEN AVE ,60609,2019-02-19T00:00:00,Pass,41.80983789,-87.6751212
111,2262199,QUIZNO'S SUB,Risk 1 (High),164 W DIVISION ST ,60610,2019-02-19T00:00:00,Pass w/ Conditions,41.90397013,-87.63399178
112,2262195,DENDEN RESTAURANT,Risk 1 (High),6635 N CLARK ST ,60626,2019-02-19T00:00:00,Pass,42.00274009,-87.67206262
113,2262198,CHOLIES PIZZERIA INC.,Risk 1 (High),1601 E 53RD ST ,60615,2019-02-19T00:00:00,Pass w/ Conditions,41.79946827,-87.58639503
114,2262193,"CHINESE CHEF'S KITCHEN, INC.",Risk 1 (High),2637 N CENTRAL AVE ,60639,2019-02-19T00:00:00,Pass w/ Conditions,41.92876724,-87.76600711
115,2262192,BOMBASTIC CAFE,Risk 2 (Medium),3732 N SOUTHPORT AVE ,60613,2019-02-19T00:00:00,Pass w/ Conditions,41.94988265,-87.66424178
116,2262186,SMALL CHEVAL,Risk 2 (Medium),1732 N MILWAUKEE AVE ,60647,2019-02-19T00:00:00,Pass w/ Conditions,41.91273042,-87.68132703
117,2262197,"FIESTA BURGER HEAVEN, INC.",Risk 1 (High),7832 S ASHLAND AVE ,60620,2019-02-19T00:00:00,Pass w/ Conditions,41.75117948,-87.66360549
118,2262187,USMANIA RESTAURANT,Risk 1 (High),2253 W DEVON AVE ,60659,2019-02-19T00:00:00,Pass w/ Conditions,41.99766946,-87.68706951
119,2262181,SUBWAY,Risk 1 (High),3550 N AUSTIN AVE ,60634,2019-02-19T00:00:00,Pass w/ Conditions,41.94548695,-87.77663733
120,2262188,TERRY'S,Risk 1 (High),5950 W MADISON ST ,60644,2019-02-19T00:00:00,Pass w/ Conditions,41.88020994,-87.77381514
121,2262177,"TONY'S BURRITO MEX, INC",Risk 1 (High),1957 W BELMONT AVE ,60657,2019-02-19T00:00:00,Pass,41.93946536,-87.67815712
122,2262185,BOYA FOOD TRADING,Risk 1 (High),2621 S HALSTED ST ,60608,2019-02-19T00:00:00,Pass w/ Conditions,41.84467742,-87.64628725
123,2262180,CHILI'S GRILL & BAR,Risk 1 (High),1750 W 119TH ST ,60643,2019-02-19T00:00:00,Pass,41.67756731,-87.66584493
124,2262175,MAYAN PALACE 2,Risk 1 (High),2721 N HALSTED ST ,60614,2019-02-19T00:00:00,Pass,41.93217875,-87.64884537
125,2262174,MAYAN PALACE 2,Risk 1 (High),2721 N HALSTED ST ,60614,2019-02-19T00:00:00,Pass,41.93217875,-87.64884537
126,2262173,NAF NAF GRILL,Risk 1 (High),326 N MICHIGAN AVE ,60601,2019-02-19T00:00:00,Pass w/ Conditions,41.88741511,-87.62469815
127,2262171,LEADER BAR,Risk 1 (High),3000-3004 W Irving Park RD ,60618,2019-02-19T00:00:00,Fail,41.95405926,-87.70319086
128,2262178,WINGSTOP,Risk 1 (High),7953 S CICERO AVE ,60652,2019-02-19T00:00:00,Pass w/ Conditions,41.74803597,-87.74115697
129,2262168,"BENCHMARK HOSPITALITY OF CHICAGO, INC.",Risk 1 (High),325 N LA SALLE ST BLDG ,60654,2019-02-19T00:00:00,Pass,41.88819879,-87.63236298
130,2262167,"BENCHMARK HOSPITALITY OF CHICAGO, INC.",Risk 1 (High),325 N LA SALLE ST BLDG ,60654,2019-02-19T00:00:00,Pass,41.88819879,-87.63236298
131,2262164,WINDY CITY BBQ,Risk 3 (Low),2239-2241 N WESTERN AVE ,60647,2019-02-19T00:00:00,Pass w/ Conditions,41.92282232,-87.68743108
132,2262161,WINDY CITY BBQ,Risk 1 (High),2239-2241 N WESTERN AVE ,60647,2019-02-19T00:00:00,Pass w/ Conditions,41.92282232,-87.68743108
133,2262155,TORTERIA SAN LENCHITO INC.,Risk 1 (High),4810 N DRAKE AVE ,60625,2019-02-19T00:00:00,Pass w/ Conditions,41.96873485,-87.71719003
134,2262148,Las Delicias De Puerto Rico,Risk 1 (High),4821 W ARMITAGE AVE ,60639,2019-02-19T00:00:00,Pass w/ Conditions,41.91681503,-87.7470576
135,2262154,THE  VERANDA ON THORNDALE,Risk 1 (High),1100-1102 W THORNDALE AVE ,60660,2019-02-19T00:00:00,Fail,41.99016589,-87.65832086
136,2262144,TAQUERIA EL HEREDERO INC,Risk 3 (Low),3222 W ARMITAGE AVE ,60647,2019-02-19T00:00:00,Pass w/ Conditions,41.91749939,-87.70794307
137,2262141,TAQUERIA EL HEREDERO INC,Risk 1 (High),3222 W ARMITAGE AVE ,60647,2019-02-19T00:00:00,Pass w/ Conditions,41.91749939,-87.70794307
138,2262133,LE COLONIAL,Risk 1 (High),57 E OAK ST ,60611,2019-02-19T00:00:00,Pass,41.90067176,-87.62623509
139,2262132,ELEVEN CITY DINER,Risk 1 (High),1112 S WABASH AVE ,60605,2019-02-19T00:00:00,Pass w/ Conditions,41.8688341,-87.62600895
140,2262126,DUNKIN DONUTS,Risk 2 (Medium),500 W MADISON ST ,60661,2019-02-19T00:00:00,Pass w/ Conditions,41.88199434,-87.63975868
141,2262124,YOSHI'S CAFE,Risk 1 (High),3257 N HALSTED ST ,60657,2019-02-19T00:00:00,Pass w/ Conditions,41.94169634,-87.64917657
142,2262125,LE COLONIAL,Risk 1 (High),57 E OAK ST ,60611,2019-02-19T00:00:00,Pass,41.90067176,-87.62623509
143,2262131,"MARISCOS EL KORA, INC.",Risk 3 (Low),5207-5209 S ARCHER AVE ,60632,2019-02-19T00:00:00,Pass w/ Conditions,41.79984493,-87.73474014
144,2262130,ANTEPRIMA,Risk 1 (High),5316 N CLARK ST ,60640,2019-02-19T00:00:00,Pass w/ Conditions,41.97861615,-87.66847039
145,2262117,"MARISCOS EL KORA, INC.",Risk 1 (High),5207-5209 S ARCHER AVE ,60632,2019-02-19T00:00:00,Pass w/ Conditions,41.79984493,-87.73474014
146,2262115,I.H.O.P.,Risk 1 (High),4210 N CICERO AVE ,60641,2019-02-19T00:00:00,Pass,41.95742942,-87.74757442
147,2262110,LOU MALNATI'S PIZZERIA,Risk 1 (High),1120 N STATE ST ,60610,2019-02-15T00:00:00,Pass w/ Conditions,41.90239382,-87.62846892
148,2262107,SUBWAY,Risk 1 (High),6555 N CLARK ST ,60626,2019-02-15T00:00:00,Pass w/ Conditions,42.00155691,-87.67165232
149,2262102,SUBWAY,Risk 1 (High),1651 W ROOSEVELT RD ,60608,2019-02-15T00:00:00,Pass w/ Conditions,41.86674938,-87.66846405
150,2262099,SUBWAY,Risk 1 (High),3706 N SOUTHPORT AVE ,60613,2019-02-15T00:00:00,Pass w/ Conditions,41.94914776,-87.66422178
151,2262097,A.P. DELI INC. XI,Risk 1 (High),1759 E 75TH ST ,60649,2019-02-15T00:00:00,Pass w/ Conditions,41.75871102,-87.58110034
152,2262104,"BROADWAY GRILL, INC.",Risk 1 (High),4800 N BROADWAY ,60640,2019-02-15T00:00:00,Pass w/ Conditions,41.96908332,-87.65981945
153,2262103,QUESADILLA MONARCA,Risk 1 (High),3645 1/2 W 83RD PL ,60652,2019-02-15T00:00:00,Pass w/ Conditions,41.74128282,-87.71382962
154,2262095,AIN'T SHE SWEET CAFE BEVERLY,Risk 1 (High),9920 S WESTERN AVE ,60643,2019-02-15T00:00:00,Pass,41.71301334,-87.68196971
155,2262090,BIRRIERIA Y CARNITAS EL GALLITO,Risk 1 (High),7021 N CLARK ST ,60626,2019-02-15T00:00:00,Pass w/ Conditions,42.00967499,-87.67397033
156,2262089,THE GLOBE PUB,Risk 1 (High),1934 W IRVING PARK RD ,60613,2019-02-15T00:00:00,Pass w/ Conditions,41.9542799,-87.67773217
157,2262087,HOME RUN INN PIZZERIA,Risk 1 (High),3211-3215 N SHEFFIELD AVE ,60657,2019-02-15T00:00:00,Pass,41.94029041,-87.65397145
158,2262086,KAM FUNG RESTAURANT,Risk 1 (High),216 W 22ND PL ,60616,2019-02-15T00:00:00,Fail,41.85227106,-87.63272836
159,2262085,SUBWAY,Risk 1 (High),1300 W CERMAK RD ,60608,2019-02-15T00:00:00,Pass w/ Conditions,41.85256485,-87.65878715
160,2262082,MAY ST. RESTAURANT,Risk 1 (High),1146 W CERMAK RD ,60608,2019-02-15T00:00:00,No Entry,41.85262495,-87.65491858
161,2262079,Q'S TIPS AND WINGS,Risk 1 (High),2517 W 79TH ST ,60652,2019-02-15T00:00:00,Pass w/ Conditions,41.74988283,-87.68602348
162,2262076,JOJO'S MILK BAR,Risk 1 (High),23 W HUBBARD ST ,60654,2019-02-15T00:00:00,Pass w/ Conditions,41.88994129,-87.62887635
163,2262081,JANSON'S DRIVE IN,Risk 1 (High),9900 S WESTERN AVE ,60643,2019-02-15T00:00:00,Pass w/ Conditions,41.7135699,-87.68198572
164,2262075,JOJO'S MILK BAR,Risk 1 (High),23 W HUBBARD ST ,60654,2019-02-15T00:00:00,Pass w/ Conditions,41.88994129,-87.62887635
165,2262061,RISE UP NUTRITION,Risk 2 (Medium),2909 N BROADWAY ,60657,2019-02-15T00:00:00,Pass,41.93538701,-87.64409601
166,2262056,LOU MITCHELL'S,Risk 1 (High),565 W JACKSON BLVD ,60661,2019-02-15T00:00:00,Fail,41.87790422,-87.64219482
167,2262045,SPANGLISH MEXICAN KITCHEN INC.,Risk 1 (High),555 S STATE ST ,60605,2019-02-15T00:00:00,Pass w/ Conditions,41.87467595,-87.62746711
168,2262043,SUBWAY  5183,Risk 1 (High),333 W NORTH AVE ,60610,2019-02-15T00:00:00,Pass w/ Conditions,41.91101315,-87.63801771
169,2262040,NOOKIES CAFE & RESTAURANT,Risk 1 (High),1100 W BRYN MAWR AVE ,60660,2019-02-15T00:00:00,Pass w/ Conditions,41.98376648,-87.65811162
170,2262039,STEAK & EGGER,Risk 1 (High),1174 W CERMAK RD ,60608,2019-02-15T00:00:00,Pass w/ Conditions,41.85260827,-87.6559632
171,2262038,SUSHI WITH GUSTO,Risk 1 (High),2250 N SHEFFIELD AVE ,60614,2019-02-15T00:00:00,Pass,41.92323687,-87.65368543
172,2262035,LA PERLA TAPATIA,Risk 1 (High),3251 W NORTH AVE ,60647,2019-02-14T00:00:00,Pass w/ Conditions,41.90997648,-87.70907872
173,2262031,LA PENA RESTAURANTE,Risk 1 (High),4212-4214 N MILWAUKEE AVE ,60641,2019-02-14T00:00:00,No Entry,41.9573322,-87.75179742
174,2262027,GOOGOO'S TABLE,Risk 1 (High),4356 W ARMITAGE AVE ,60639,2019-02-14T00:00:00,Pass w/ Conditions,41.91715618,-87.73618932
175,2262034,IYANZE,Risk 1 (High),4623-4627 N BROADWAY ,60640,2019-02-14T00:00:00,Fail,41.96606299,-87.65773412
176,2262026,PONCE PLACE,Risk 1 (High),3612 W NORTH AVE ,60647,2019-02-14T00:00:00,Pass w/ Conditions,41.91009811,-87.71716587
177,2262024,MAKO,Risk 3 (Low),731 W LAKE ST ,60661,2019-02-14T00:00:00,Fail,41.88556262,-87.64701478
178,2262020,PARSON'S CHICKEN & FISH,Risk 1 (High),2435-2439 N HALSTED ST ,60614,2019-02-14T00:00:00,Pass,41.92643591,-87.64864842
179,2262019,PARSON'S CHICKEN & FISH,Risk 1 (High),2435-2439 N HALSTED ST ,60614,2019-02-14T00:00:00,Pass,41.92643591,-87.64864842
180,2262021,POTBELLY SANDWICH WORKS LLC,Risk 1 (High),520 N MICHIGAN AVE ,60611,2019-02-14T00:00:00,Pass w/ Conditions,41.89168852,-87.62430718
181,2262013,BLAZE IL STORE 1 LLC.,Risk 2 (Medium),953 W BELMONT AVE ,60657,2019-02-14T00:00:00,Pass w/ Conditions,41.93980828,-87.65360564
182,2262030,TACO BELL,Risk 1 (High),3509 N HARLEM AVE ,60634,2019-02-14T00:00:00,Pass w/ Conditions,41.94376517,-87.80680786
183,2262022,MAKO,Risk 1 (High),731 W LAKE ST ,60661,2019-02-14T00:00:00,Fail,41.88556262,-87.64701478
184,2262016,POZOLERIA IGUALA IN CHICAGO INC.,Risk 1 (High),3835 W FULLERTON AVE ,60647,2019-02-14T00:00:00,Pass w/ Conditions,41.92441607,-87.72331978
185,2262010,LOLAS CONEY LLC,Risk 1 (High),2858 W CHICAGO AVE ,60622,2019-02-14T00:00:00,Fail,41.89574658,-87.6991028
186,2262018,SUBWAY SANDWICHES AND SALAD,Risk 1 (High),3946 W CERMAK RD ,60623,2019-02-14T00:00:00,Pass w/ Conditions,41.85166707,-87.72408696
187,2262009,FOX'S BEVERLY PUB,Risk 1 (High),9956 S WESTERN AVE ,60643,2019-02-14T00:00:00,Pass w/ Conditions,41.71201213,-87.68193541
188,2262006,POPEYES,Risk 2 (Medium),11350 S HALSTED ST ,60628,2019-02-14T00:00:00,Pass w/ Conditions,41.68721693,-87.64236462
189,2262008,SUBWAY,Risk 1 (High),2759 W CERMAK RD ,60608,2019-02-14T00:00:00,Pass,41.85179281,-87.69538205
190,2262002,BABY BURRITOS,Risk 1 (High),8121 S PULASKI RD ,60652,2019-02-14T00:00:00,Pass w/ Conditions,41.74519176,-87.72162461
191,2262001,GORDO'S TAMALES,Risk 1 (High),2811 W 55TH ST ,60632,2019-02-14T00:00:00,Pass w/ Conditions,41.79357208,-87.69431304
192,2262003,MARWA GRILL,Risk 1 (High),6257 N MCCORMICK RD ,60659,2019-02-14T00:00:00,Pass w/ Conditions,41.99559354,-87.71274897
193,2261999,GORDO TAMALES,Risk 1 (High),2811 W 55TH ST ,60632,2019-02-14T00:00:00,Out of Business,41.79357208,-87.69431304
194,2262015,CAPT'N NEMO,Risk 1 (High),7367 N CLARK ST ,60626,2019-02-14T00:00:00,Fail,42.01570881,-87.67500337
195,2262000,THE DOG HOUSE GRILL,Risk 1 (High),1534 N WELLS ST ,60610,2019-02-14T00:00:00,Pass w/ Conditions,41.91018443,-87.63482698
196,2261995,TWISTED HIPPO TAPROOM AND EATERY,Risk 1 (High),2925 W MONTROSE AVE ,60618,2019-02-14T00:00:00,Pass,41.96111858,-87.70191547
197,2261991,RAVINIA BREWING COMPANY,Risk 1 (High),2925 W MONTROSE AVE ,60618,2019-02-14T00:00:00,Out of Business,41.96111858,-87.70191547
198,2261993,LA BARCA EL TACONAZO,Risk 1 (High),4124 W NORTH AVE ,60639,2019-02-14T00:00:00,Pass w/ Conditions,41.90994655,-87.72995037
199,2261989,CHICAGO STYLE CONCESSIONS,Risk 1 (High),4545 W DIVISION ST ,60651,2019-02-14T00:00:00,Pass,41.90233166,-87.74045894
200,2261988,BAJA EXPRESS INN TAQUERIA,Risk 1 (High),11128 S HALSTED ST ,60628,2019-02-14T00:00:00,Pass w/ Conditions,41.69147211,-87.64250201
201,2261985,KFC,Risk 2 (Medium),4804 N SHERIDAN RD ,60640,2019-02-14T00:00:00,Pass w/ Conditions,41.96925666,-87.65497266
202,2261986,AMERICANOS,Risk 1 (High),11060 S WESTERN AVE ,60643,2019-02-14T00:00:00,Fail,41.69210916,-87.68131144
203,2261980,DUNLAYS ON THE SQUARE,Risk 1 (High),3137-3139 W LOGAN BLVD ,60647,2019-02-14T00:00:00,Pass w/ Conditions,41.92786354,-87.7064151
204,2261976,DRAGON BOWL,Risk 1 (High),220 W 31ST ST ,60616,2019-02-14T00:00:00,Fail,41.83833303,-87.63257554
205,2261973,POKE POKE,Risk 1 (High),802 W BELMONT AVE ,60657,2019-02-14T00:00:00,Pass w/ Conditions,41.94008901,-87.64939125
206,2261970,TAQUERIA EL HEREDERO INC,Risk 3 (Low),3222 W ARMITAGE AVE ,60647,2019-02-14T00:00:00,Fail,41.91749939,-87.70794307
207,2261982,EL CHILITO LOCO,Risk 1 (High),8230 S KEDZIE AVE ,60652,2019-02-14T00:00:00,Pass w/ Conditions,41.74337987,-87.70236133
208,2261971,SUBWAY,Risk 1 (High),1313 W TOUHY AVE ,60626,2019-02-14T00:00:00,Pass w/ Conditions,42.01270994,-87.6640336
209,2261964,BRYANNA'S RESTAURANT,Risk 1 (High),5695 N LINCOLN AVE ,60659,2019-02-14T00:00:00,Pass w/ Conditions,41.98501088,-87.69808433
210,2261961,GREAT SEA CHINESE RESTAURANT,Risk 1 (High),3253 W LAWRENCE AVE ,60625,2019-02-14T00:00:00,Fail,41.9683225,-87.71062111
211,2261963,LUIS VEGA ROMERO,Risk 1 (High),4545 W DIVISION ST ,60651,2019-02-14T00:00:00,Pass,41.90233166,-87.74045894
212,2261952,MELI CAFE ON DEARBORN,Risk 1 (High),500 S DEARBORN ST ,60605,2019-02-14T00:00:00,Pass w/ Conditions,41.87556911,-87.62938323
213,2261950,CUBA 312,Risk 1 (High),2054 W ROSCOE ST ,60618,2019-02-14T00:00:00,Pass w/ Conditions,41.94330118,-87.68065079
214,2261965,TAQUERIA EL HEREDERO INC,Risk 1 (High),3222 W ARMITAGE AVE ,60647,2019-02-14T00:00:00,Fail,41.91749939,-87.70794307
215,2261942,TACO & BURRITO HOUSE,Risk 1 (High),1548 W FULLERTON AVE ,60614,2019-02-14T00:00:00,Pass w/ Conditions,41.92526694,-87.66771876
216,2261944,TACO & BURRITO HOUSE,Risk 1 (High),1548 W FULLERTON AVE ,60614,2019-02-14T00:00:00,Out of Business,41.92526694,-87.66771876
217,2261945,GREAT SEA CHINESE RESTAURANT,Risk 1 (High),3253 W LAWRENCE AVE ,60625,2019-02-14T00:00:00,Fail,41.9683225,-87.71062111
218,2261951,SUBWAY,Risk 1 (High),3550 N AUSTIN AVE ,60634,2019-02-14T00:00:00,Pass w/ Conditions,41.94548695,-87.77663733
219,2261934,LOS OLIVO'S,Risk 1 (High),3400 W 31ST ST ,60623,2019-02-14T00:00:00,Fail,41.83725399,-87.7097778
220,2261929,BURGER KING #1308,Risk 2 (Medium),110 E 95TH ST ,60619,2019-02-14T00:00:00,Fail,41.72190101,-87.62006369
221,2261925,HONG HUAH RESTAURANT,Risk 1 (High),5924 W FULLERTON AVE ,60639,2019-02-13T00:00:00,Fail,41.92395714,-87.77444354
222,2261922,NOODLES PARTY,Risk 1 (High),4205 W LAWRENCE AVE ,60630,2019-02-13T00:00:00,Pass w/ Conditions,41.96807267,-87.73319722
223,2261920,EVITA ARGENTINIAN STEAKHOUSE,Risk 1 (High),6112 N LINCOLN AVE ,60659,2019-02-13T00:00:00,No Entry,41.99315114,-87.71209941
224,2261917,JARVIS GYROS,Risk 1 (High),1517 W JARVIS AVE ,60626,2019-02-13T00:00:00,Pass w/ Conditions,42.01592922,-87.66884761
225,2261926,TACO & BURRITO HOUSE,Risk 1 (High),1548 W FULLERTON AVE ,60614,2019-02-13T00:00:00,Not Ready,41.92526694,-87.66771876
226,2261914,MIMA'S TASTE OF CUBA,Risk 1 (High),2925 W IRVING PARK RD ,60618,2019-02-13T00:00:00,Pass w/ Conditions,41.95384693,-87.70184233
227,2261913,TAQUERIA EL PRIMAZO,Risk 1 (High),2925 W IRVING PARK RD ,60618,2019-02-13T00:00:00,Out of Business,41.95384693,-87.70184233
228,2261915,MACHINE,Risk 3 (Low),1836-1846 W DIVISION ST ,60622,2019-02-13T00:00:00,Not Ready,41.90335449,-87.67381134
229,2261911,COCHIAROS PIZZA #2,Risk 1 (High),4741 W FULLERTON AVE ,60639,2019-02-13T00:00:00,Pass w/ Conditions,41.92414063,-87.74552934
230,2261909,CUBA 312,Risk 1 (High),2054 W ROSCOE ST ,60618,2019-02-13T00:00:00,No Entry,41.94330118,-87.68065079
231,2261908,MACHINE,Risk 1 (High),1836-1846 W DIVISION ST ,60622,2019-02-13T00:00:00,Not Ready,41.90335449,-87.67381134
232,2261907,MAYAN PALACE,Risk 1 (High),2703 N HALSTED ST ,60614,2019-02-13T00:00:00,Out of Business,41.93163976,-87.64882688
233,2261906,WING STOP,Risk 1 (High),6160 N LINCOLN AVE ,60659,2019-02-13T00:00:00,Pass w/ Conditions,41.99402794,-87.71352801
234,2261905,Red Ribbon,Risk 1 (High),5033 N ELSTON AVE ,60630,2019-02-13T00:00:00,Pass w/ Conditions,41.97234928,-87.74682509
235,2261910,MI TIERRA SOUTH RESTAURANT,Risk 1 (High),2528 S KEDZIE AVE ,60623,2019-02-13T00:00:00,Pass w/ Conditions,41.84545141,-87.70521429
236,2261903,CHICAGO HILTON & TOWERS,Risk 1 (High),720 S MICHIGAN AVE ,60605,2019-02-13T00:00:00,Pass,41.87279887,-87.62433781
237,2261904,GABY'S FUNNEL CAKES,Risk 2 (Medium),4545 W DIVISION ST ,60651,2019-02-13T00:00:00,Pass w/ Conditions,41.90233166,-87.74045894
238,2261901,CHICAGO HILTON & TOWERS,Risk 1 (High),720 S MICHIGAN AVE ,60605,2019-02-13T00:00:00,Pass,41.87279887,-87.62433781
239,2261902,LA VECCHIA TRATTORIA INC,Risk 1 (High),7419 W IRVING PARK RD ,60634,2019-02-13T00:00:00,Pass w/ Conditions,41.95252417,-87.81303324
240,2261899,BOB'S PIZZA,Risk 1 (High),1659 W 21st ST ,60608,2019-02-13T00:00:00,Pass w/ Conditions,41.85399986,-87.6684545
241,2261898,ALI BABA DONER,Risk 1 (High),545 W DIVERSEY PKWY ,60614,2019-02-13T00:00:00,Pass,41.9327277,-87.64303963
242,2261896,HALSTED STREET DELI & BAGEL,Risk 1 (High),500 W MADISON ST ,60661,2019-02-13T00:00:00,Pass,41.88199434,-87.63975868
243,2261894,THE ORIGINAL GINO'S EAST,Risk 1 (High),1659 W 21st ST ,60608,2019-02-13T00:00:00,Out of Business,41.85399986,-87.6684545
244,2261892,ANGIES MEXICAN RESTAURANT,Risk 1 (High),3944 W CHICAGO AVE ,60651,2019-02-13T00:00:00,Out of Business,41.89548303,-87.72538177
245,2261891,HUTCH,Risk 1 (High),3301 N CLARK ST ,60657,2019-02-13T00:00:00,Pass w/ Conditions,41.94186146,-87.65204754
246,2261897,Jollibee,Risk 1 (High),5033 N ELSTON AVE ,60630,2019-02-13T00:00:00,Pass w/ Conditions,41.97234928,-87.74682509
247,2261889,CHICKEN POLLO SHACK,Risk 2 (Medium),3944 W CHICAGO AVE ,60651,2019-02-13T00:00:00,Pass,41.89548303,-87.72538177
248,2261882,SPANGLISH MEXICAN KITCHEN INC.,Risk 1 (High),555 S STATE ST ,60605,2019-02-13T00:00:00,Fail,41.87467595,-87.62746711
249,2261877,MATSUYA JAPANESE RESTAURANT,Risk 1 (High),3242 N CLARK ST ,60657,2019-02-13T00:00:00,Pass,41.94097203,-87.6516706
250,2261876,MAYAN PALACE 2,Risk 1 (High),2721 N HALSTED ST ,60614,2019-02-13T00:00:00,Fail,41.93217875,-87.64884537
251,2261875,MAYAN PALACE 2,Risk 1 (High),2721 N HALSTED ST ,60614,2019-02-13T00:00:00,Fail,41.93217875,-87.64884537
252,2261870,THE COFFEE ALLEY,Risk 1 (High),1152 W TAYLOR ST ,60607,2019-02-13T00:00:00,Pass w/ Conditions,41.86953213,-87.65634542
253,2261869,JIMMY JOHNS,Risk 1 (High),237 W NORTH AVE ,60610,2019-02-13T00:00:00,Fail,41.91103768,-87.63621881
254,2261865,EL FARO RESTAURANT,Risk 1 (High),3936 W 31ST ST ,60623,2019-02-13T00:00:00,Pass w/ Conditions,41.83700796,-87.72336374
255,2261864,ROCKING HORSE,Risk 1 (High),2535 N MILWAUKEE AVE ,60647,2019-02-11T00:00:00,Pass w/ Conditions,41.92749258,-87.70459704
256,2261861,S & G GRILL,Risk 1 (High),3000 N LINCOLN AVE ,60657,2019-02-11T00:00:00,Fail,41.93612294,-87.66391411
257,2261859,RANALLI'S,Risk 1 (High),1925 N LINCOLN AVE ,60614,2019-02-11T00:00:00,No Entry,41.91721712,-87.63704399
258,2261862,JIBARITOS ON HARLEM,Risk 1 (High),3317-3319 N HARLEM AVE ,60634,2019-02-11T00:00:00,Fail,41.94033267,-87.80668213
259,2261863,SUBWAY,Risk 1 (High),1651 W ROOSEVELT RD ,60608,2019-02-11T00:00:00,Fail,41.86674938,-87.66846405
260,2261850,HALSTED STREET DELI & BAGEL,Risk 1 (High),500 W MADISON ST ,60661,2019-02-11T00:00:00,Fail,41.88199434,-87.63975868
261,2261853,WINGSTOP,Risk 1 (High),47 W DIVISION ST ,60610,2019-02-11T00:00:00,Pass w/ Conditions,41.90380883,-87.63040711
262,2261858,JINN'S FRESH,Risk 1 (High),5751 W DIVISION ST ,60651,2019-02-11T00:00:00,Pass w/ Conditions,41.90196808,-87.77010811
263,2261849,THE REGION HANDCRAFTED HAMBURGERS,Risk 1 (High),2057 W ROSCOE ST ,60618,2019-02-11T00:00:00,Pass w/ Conditions,41.94308026,-87.68072843
264,2261852,PIZZA NOVA EXPRESS,Risk 1 (High),3836 W 79TH ST ,60652,2019-02-11T00:00:00,Fail,41.74971286,-87.71976333
265,2261846,ANTOJITOS PUEBLITA INC,Risk 1 (High),3737 W LAWRENCE AVE UNIT E,60625,2019-02-11T00:00:00,Fail,41.96819486,-87.7222708
266,2261848,SUSHI WORLD,Risk 1 (High),6251 N MCCORMICK RD ,60659,2019-02-11T00:00:00,Fail,41.99547888,-87.71287527
267,2261842,KING CRAB HOUSE,Risk 1 (High),1816 N HALSTED ST ,60614,2019-02-11T00:00:00,Pass w/ Conditions,41.91436383,-87.64851532
268,2261838,DUNLAYS ON THE SQUARE,Risk 1 (High),3137-3139 W LOGAN BLVD ,60647,2019-02-11T00:00:00,Fail,41.92786354,-87.7064151
269,2261840,RESTAURANTE SALVADORENO OLOCUILTA INC,Risk 1 (High),3658 W LAWRENCE AVE ,60625,2019-02-11T00:00:00,Pass,41.96843263,-87.72063796
270,2261836,TAOS RESTAURANT,Risk 1 (High),2114 W ROSCOE ST ,60618,2019-02-11T00:00:00,Pass w/ Conditions,41.94328855,-87.68152785
271,2261839,HAROLDS'S CHICKEN SHACK,Risk 2 (Medium),7318 S VINCENNES AVE ,60621,2019-02-11T00:00:00,Fail,41.76126021,-87.63005895
272,2261831,POPEYES CHICKEN,Risk 1 (High),156 N WABASH AVE FL 1,60601,2019-02-11T00:00:00,Not Ready,41.88471488,-87.62640013
273,2261829,SUBWAY,Risk 1 (High),8614 S KEDZIE AVE ,60652,2019-02-11T00:00:00,Pass w/ Conditions,41.73646853,-87.70219284
274,2261826,"PHILY SUB, INC.",Risk 2 (Medium),1914 E 79TH ST ,60649,2019-02-11T00:00:00,Pass,41.75169395,-87.5777757
275,2261827,"WENDY'S PROPERTIES, LLC",Risk 1 (High),6324 N WESTERN AVE ,60659,2019-02-11T00:00:00,Pass,41.99667686,-87.68999576
276,2261833,LYFE KITCHEN,Risk 1 (High),831 N STATE ST ,60610,2019-02-11T00:00:00,Pass,41.89760178,-87.6280777
277,2261817,BRICKS,Risk 1 (High),1909 N LINCOLN AVE ,60614,2019-02-11T00:00:00,Pass w/ Conditions,41.91684811,-87.63652447
278,2261825,SUBWAY,Risk 1 (High),3550 N AUSTIN AVE ,60634,2019-02-11T00:00:00,Pass w/ Conditions,41.94548695,-87.77663733
279,2261812,DIAG BAR & GRILL/ 404 WINE BAR,Risk 1 (High),2852-2856 N SOUTHPORT AVE ,60657,2019-02-11T00:00:00,Pass w/ Conditions,41.93405979,-87.66376415
280,2261808,I.H.O.P.,Risk 1 (High),4210 N CICERO AVE ,60641,2019-02-11T00:00:00,Fail,41.95742942,-87.74757442
281,2261807,SIMI'S,Risk 1 (High),6310 N WESTERN AVE ,60659,2019-02-11T00:00:00,Fail,41.99628183,-87.68998285
282,2261804,DERICE ASIAN CUSINE,Risk 1 (High),918-920 E 47TH ST ,60653,2019-02-08T00:00:00,Pass w/ Conditions,41.80968242,-87.60316574
283,2261799,KEN'S,Risk 1 (High),10522 S WESTERN AVE ,60643,2019-02-08T00:00:00,No Entry,41.70201547,-87.68162963
284,2261801,SUBWAY,Risk 1 (High),4556 N MAGNOLIA AVE ,60640,2019-02-08T00:00:00,Pass w/ Conditions,41.96519582,-87.66116364
285,2261793,TAKE ME OUT,Risk 1 (High),1502 W 18TH ST ,60608,2019-02-08T00:00:00,Out of Business,41.85794234,-87.66395801
286,2261791,L & G FAMILY RESTAURANT INC,Risk 1 (High),10401 S TORRENCE AVE ,60617,2019-02-08T00:00:00,Fail,41.70630823,-87.55949796
287,2261802,SUMMER HOUSE (T2 MAIN),Risk 1 (High),11601 W TOUHY AVE ,60666,2019-02-08T00:00:00,Pass,42.0085364,-87.91442844
288,2261792,TAQUERIA EL CHARRO,Risk 1 (High),6661 N CLARK ST ,60626,2019-02-08T00:00:00,Pass w/ Conditions,42.00349583,-87.67232209
289,2261788,BAJA EXPRESS INN TAQUERIA,Risk 1 (High),11128 S HALSTED ST ,60628,2019-02-08T00:00:00,Fail,41.69147211,-87.64250201
290,2261795,2 ASIAN BROTHERS,Risk 1 (High),3222 W FOSTER AVE ,60625,2019-02-08T00:00:00,Pass w/ Conditions,41.97584741,-87.70960356
291,2261794,PEPES RESTAURANT,Risk 1 (High),954 W 87TH ST ,60620,2019-02-08T00:00:00,Fail,41.73611661,-87.64826717
292,2261783,HAROLD'S CHICKEN,Risk 2 (Medium),124 E 35TH ST. ,60616,2019-02-08T00:00:00,Pass w/ Conditions,41.83116513,-87.62210905
293,2261786,SEOUL TACO,Risk 1 (High),738 N CLARK ST ,60654,2019-02-08T00:00:00,Pass w/ Conditions,41.89600475,-87.63138052
294,2261789,JIMMY JOHNS,Risk 1 (High),237 W NORTH AVE ,60610,2019-02-08T00:00:00,Fail,41.91103768,-87.63621881
295,2261916,YOSHI'S CAFE,Risk 1 (High),3257 N HALSTED ST ,60657,2019-02-08T00:00:00,No Entry,41.94169634,-87.64917657
296,2261784,THE GLOBE PUB,Risk 1 (High),1934 W IRVING PARK RD ,60613,2019-02-08T00:00:00,Fail,41.9542799,-87.67773217
297,2261781,HORSE THIEF HOLLOW,Risk 1 (High),10426 S WESTERN AVE ,60643,2019-02-08T00:00:00,Pass w/ Conditions,41.70372586,-87.6816838
298,2261777,TRATTORIA GIANNI,Risk 1 (High),1711 N HALSTED ST ,60614,2019-02-08T00:00:00,Pass w/ Conditions,41.91313276,-87.64819574
299,2261778,SAY GRACE RESTAURANT GROUP,Risk 1 (High),109 E 51ST ST ,60615,2019-02-08T00:00:00,No Entry,41.80189764,-87.62220009
300,2261779,SUPER TASTY SUB INC.,Risk 1 (High),2001 W HOWARD ST ,60645,2019-02-08T00:00:00,Pass w/ Conditions,42.01933802,-87.68050926
301,2261787,SIZZLING POT KING,Risk 1 (High),769 W JACKSON BLVD ,60661,2019-02-08T00:00:00,Pass,41.87784358,-87.64678183
302,2261776,ROSATI'S PIZZA,Risk 1 (High),4863 N BROADWAY ,60640,2019-02-08T00:00:00,Pass w/ Conditions,41.97080643,-87.65957208
303,2261775,RESTAURANT EL MOGOTE,Risk 1 (High),4959 N KEDZIE AVE ,60625,2019-02-08T00:00:00,Pass w/ Conditions,41.9720021,-87.7084294
304,2261771,MONTEVERDE,Risk 1 (High),1020-1022 W MADISON ST ,60607,2019-02-08T00:00:00,Pass,41.8817936,-87.65296525
305,2261769,THE HIDDEN COVE,Risk 3 (Low),5338 N LINCOLN AVE ,60625,2019-02-08T00:00:00,Pass w/ Conditions,41.97885403,-87.69278877
306,2261770,CHINA DRAGON 18TH ST,Risk 1 (High),1737 W 18TH ST ,60608,2019-02-08T00:00:00,Pass w/ Conditions,41.85762701,-87.67020682
307,2261765,SUBWAY,Risk 1 (High),8331 S STEWART AVE ,60620,2019-02-08T00:00:00,Pass w/ Conditions,41.74257762,-87.63393693
308,2261766,"24 HRS GYROS & SUB INC.,",Risk 1 (High),2058 E 71ST ST ,60649,2019-02-08T00:00:00,Fail,41.76637268,-87.57391936
309,2261743,VIRGEN DE GUADALUPE,Risk 2 (Medium),6410 N FAIRFIELD AVE ,60645,2019-02-08T00:00:00,Pass w/ Conditions,41.99795313,-87.6985867
310,2261740,NEVERIA EL SABOR de MEXICO,Risk 1 (High),1639 W 18TH ST ,60608,2019-02-08T00:00:00,Pass w/ Conditions,41.85765807,-87.66781976
311,2261742,PUBLICAN TAVERN K1,Risk 1 (High),11601 W TOUHY AVE ,60666,2019-02-08T00:00:00,Pass w/ Conditions,42.0085364,-87.91442844
312,2261746,HALSTED STREET DELI & BAGEL,Risk 1 (High),500 W MADISON ST ,60661,2019-02-08T00:00:00,Fail,41.88199434,-87.63975868
313,2261735,CARIBELLA,Risk 1 (High),3311 W FULLERTON AVE ,60647,2019-02-08T00:00:00,Pass w/ Conditions,41.92456429,-87.71106463
314,2261741,MORENAS KITCHEN,Risk 1 (High),5058 W ARMITAGE AVE ,60639,2019-02-08T00:00:00,Fail,41.91695429,-87.75331509
315,2261733,CHILAM BALAM,Risk 1 (High),3023 N BROADWAY ST ,60657,2019-02-08T00:00:00,Pass w/ Conditions,41.93720097,-87.64415793
316,2261730,LA COCINA DE ALICIA,Risk 1 (High),5058 W ARMITAGE AVE ,60639,2019-02-08T00:00:00,Out of Business,41.91695429,-87.75331509
317,2261728,AMSTAR FUEL & MINI MART,Risk 1 (High),8903 S SOUTH CHICAGO AVE ,60617,2019-02-08T00:00:00,Pass w/ Conditions,41.73364645,-87.56055303
318,2261726,SUBWAY  5183,Risk 1 (High),333 W NORTH AVE ,60610,2019-02-08T00:00:00,Fail,41.91101315,-87.63801771
319,2261724,CAFE MONSIVAIS,Risk 2 (Medium),1637 W 18TH ST ,60608,2019-02-08T00:00:00,Out of Business,41.8576591,-87.66774554
320,2261723,ALI BABA DONER,Risk 1 (High),545 W DIVERSEY PKWY ,60614,2019-02-08T00:00:00,Fail,41.9327277,-87.64303963
321,2261721,PUB 626,Risk 1 (High),1406 W MORSE AVE ,60626,2019-02-08T00:00:00,Pass w/ Conditions,42.00801323,-87.66626722
322,2261717,TACO BELL #30408,Risk 1 (High),1111 W ADDISON ST ,60613,2019-02-07T00:00:00,Out of Business,41.94705637,-87.6579655
323,2261718,PONCE PLACE,Risk 1 (High),3612 W NORTH AVE ,60647,2019-02-07T00:00:00,Fail,41.91009811,-87.71716587
324,2261719,"Checkers Drive-In Restaurants,Inc.",Risk 1 (High),3808 W ROOSEVELT RD ,60624,2019-02-07T00:00:00,Pass w/ Conditions,41.86634424,-87.72052963
325,2261712,THE DOG HOUSE GRILL,Risk 1 (High),1534 N WELLS ST ,60610,2019-02-07T00:00:00,Fail,41.91018443,-87.63482698
326,2261706,BURGER KING #244,Risk 2 (Medium),3728 S ARCHER AVE ,60632,2019-02-07T00:00:00,Pass,41.82581137,-87.68534421
327,2261708,LA MICHOACANA ICE CREAM SHOP 4,Risk 1 (High),4610 W DIVERSEY AVE ,60639,2019-02-07T00:00:00,Pass,41.93169835,-87.74238878
328,2261705,OSV,Risk 1 (High),201-209 E 75TH ST ,60619,2019-02-07T00:00:00,Pass w/ Conditions,41.75821229,-87.61984215
329,2261701,PANDA EXPRESS #1422,Risk 1 (High),1654 W 119th ST ,60643,2019-02-07T00:00:00,Pass w/ Conditions,41.67761706,-87.66311315
330,2261699,WEN CAI CHINESE KITCHEN,Risk 1 (High),2334 W CERMAK RD ,60608,2019-02-07T00:00:00,Pass w/ Conditions,41.85214902,-87.68465317
331,2261697,WEN CAI CHINESE KITCHEN,Risk 1 (High),2334 W CERMAK RD ,60608,2019-02-07T00:00:00,Out of Business,41.85214902,-87.68465317
332,2261698,NELLY'S SALOON,Risk 1 (High),3256 N ELSTON AVE ,60618,2019-02-07T00:00:00,Pass w/ Conditions,41.94052992,-87.70019493
333,2261696,DOLLOP DINER,Risk 1 (High),5060 N CLARK ST ,60640,2019-02-07T00:00:00,Pass w/ Conditions,41.97424236,-87.6683414
334,2261716,LA VECCHIA TRATTORIA INC,Risk 1 (High),7419 W IRVING PARK RD ,60634,2019-02-07T00:00:00,Fail,41.95252417,-87.81303324
335,2261694,SIMI'S,Risk 1 (High),6310 N WESTERN AVE ,60659,2019-02-07T00:00:00,No Entry,41.99628183,-87.68998285
336,2261691,BIRRIERIA Y CARNITAS EL GALLITO,Risk 1 (High),7021 N CLARK ST ,60626,2019-02-07T00:00:00,Fail,42.00967499,-87.67397033
337,2261690,ELLIPSIS COFFEEHOUSE LLC,Risk 2 (Medium),1259 W DEVON AVE ,60660,2019-02-07T00:00:00,Pass w/ Conditions,41.99805033,-87.66298529
338,2261692,JERK TACO MAN,Risk 1 (High),7723 S STATE ST ,60619,2019-02-07T00:00:00,Pass w/ Conditions,41.75388249,-87.62448276
339,2261689,SUBWAY,Risk 1 (High),1656 W 119TH ST ,60643,2019-02-07T00:00:00,Pass w/ Conditions,41.67761613,-87.66316026
340,2261687,COUSIN'S GRILL,Risk 1 (High),4612 W DIVERSEY AVE ,60639,2019-02-07T00:00:00,Pass w/ Conditions,41.93169743,-87.7424672
341,2261703,Maude's,Risk 1 (High),840 W RANDOLPH ST ,60607,2019-02-07T00:00:00,Pass,41.88449069,-87.649016
342,2261767,EL PILON RESTAURANT CORPORATION,Risk 1 (High),3422 W ARMITAGE AVE ,60647,2019-02-07T00:00:00,No Entry,41.91744085,-87.71287645
343,2261684,IHOP # 1202,Risk 1 (High),5929 N LINCOLN AVE ,60659,2019-02-07T00:00:00,Pass w/ Conditions,41.98900775,-87.70482244
344,2261683,CHEMA'S RESTAURANT INC,Risk 1 (High),3434 W NORTH AVE ,60647,2019-02-07T00:00:00,Pass w/ Conditions,41.91014588,-87.71323659
345,2261685,SUBWAY,Risk 1 (High),7601 S CICERO AVE ,60652,2019-02-07T00:00:00,Pass w/ Conditions,41.75466012,-87.74138476
346,2261682,POKE POKE,Risk 1 (High),802 W BELMONT AVE ,60657,2019-02-07T00:00:00,Fail,41.94008901,-87.64939125
347,2261676,THE EASTMAN EGG COMPANY,Risk 1 (High),937-939 W RANDOLPH ST ,60607,2019-02-07T00:00:00,Out of Business,41.8842338,-87.65116703
348,2261674,BILLY GOAT IV INC,Risk 1 (High),11601 W TOUHY AVE ,60666,2019-02-07T00:00:00,Pass w/ Conditions,42.0085364,-87.91442844
349,2261679,CHIPOTLE MEXICAN GRILL #2923,Risk 1 (High),41 W 87TH ST ,60620,2019-02-07T00:00:00,Pass,41.73615054,-87.62584234
350,2261673,GEJA'S CAFE,Risk 1 (High),340-344 W ARMITAGE AVE ,60614,2019-02-07T00:00:00,Pass w/ Conditions,41.91844534,-87.63800743
351,2261680,SIZZLING POT KING,Risk 1 (High),769 W JACKSON BLVD ,60661,2019-02-07T00:00:00,Fail,41.87784358,-87.64678183
352,2261672,SALAD WORKS,Risk 1 (High),11601 W TOUHY AVE ,60666,2019-02-07T00:00:00,Pass w/ Conditions,42.0085364,-87.91442844
353,2261669,BIG WIG,Risk 3 (Low),770 N LA SALLE DR ,60654,2019-02-07T00:00:00,Pass w/ Conditions,41.89656175,-87.63285548
354,2261675,ZOOTS,Risk 1 (High),11601 W TOUHY AVE ,60666,2019-02-07T00:00:00,Pass w/ Conditions,42.0085364,-87.91442844
355,2261665,DELHI SPICE INC.,Risk 1 (High),2657 W DEVON AVE ,60659,2019-02-07T00:00:00,Not Ready,41.99749526,-87.69705608
356,2261667,BIG WIG,Risk 1 (High),770 N LA SALLE DR ,60654,2019-02-07T00:00:00,Pass w/ Conditions,41.89656175,-87.63285548
357,2261671,KESHA'S PLACE,Risk 2 (Medium),3620 W 16TH ST ,60623,2019-02-07T00:00:00,Pass w/ Conditions,41.85907244,-87.71618365
358,2261666,AIN'T SHE SWEET CAFE,Risk 1 (High),526 E 43RD ST ,60653,2019-02-07T00:00:00,Pass,41.8168135,-87.61300231
359,2261664,"PATIO BEEF, INC",Risk 1 (High),6022 N BROADWAY ,60660,2019-02-07T00:00:00,Pass w/ Conditions,41.99164923,-87.66046439
360,2261657,RHAPSODY,Risk 3 (Low),1002 W ARGYLE ST ,60640,2019-02-07T00:00:00,Fail,41.97342006,-87.65508564
361,2261655,ALINEA RESTAURANT LLC,Risk 1 (High),1723 N HALSTED ST ,60614,2019-02-07T00:00:00,No Entry,41.91348383,-87.64820624
362,2261658,SUBWAY,Risk 1 (High),3706 N SOUTHPORT AVE ,60613,2019-02-07T00:00:00,Fail,41.94914776,-87.66422178
363,2261648,MR GREEK GYROS INC,Risk 1 (High),234 S HALSTED ST ,60661,2019-02-07T00:00:00,Pass w/ Conditions,41.8781024,-87.64739071
364,2261644,BOKA,Risk 1 (High),1727-1729 N HALSTED ST ,60614,2019-02-07T00:00:00,Pass w/ Conditions,41.91360108,-87.64820898
365,2261647,PRINCI,Risk 1 (High),1000-1002 W RANDOLPH ST ,60607,2019-02-07T00:00:00,Fail,41.88443496,-87.65216555
366,2261649,BURGER KING #25272,Risk 2 (Medium),7558 S ASHLAND AVE ,60620,2019-02-07T00:00:00,Pass,41.75587503,-87.66372419
367,2261643,SUBWAY 1121,Risk 1 (High),2938 N BROADWAY ,60657,2019-02-07T00:00:00,Pass w/ Conditions,41.9360487,-87.64440998
368,2261642,RHAPSODY,Risk 1 (High),1002 W ARGYLE ST ,60640,2019-02-07T00:00:00,Pass w/ Conditions,41.97342006,-87.65508564
369,2261640,LA FOURNETTE,Risk 1 (High),1547 N WELLS ST ,60610,2019-02-07T00:00:00,Pass w/ Conditions,41.91051747,-87.63454362
370,2261633,NANO SUSHI,Risk 1 (High),3955 N BROADWAY ,60613,2019-02-06T00:00:00,Pass w/ Conditions,41.95438519,-87.65026203
371,2261631,CARRIBEAN JERK PALACE,Risk 1 (High),3792 W 79TH ST ,60652,2019-02-06T00:00:00,Pass w/ Conditions,41.74974186,-87.71794639
372,2261628,FUNGS INTERNATIONAL CUISINE,Risk 1 (High),1343 W MORSE AVE ,60626,2019-02-06T00:00:00,Out of Business,42.00780902,-87.66542848
373,2261627,BROWN BAG SEAFOOD CO.,Risk 1 (High),150 N RIVERSIDE PLZ ,60606,2019-02-06T00:00:00,Not Ready,41.88508946,-87.63840559
374,2261626,"GOLDEN HOOK FISH, CHICKEN, STEAK & BEEF, INC.",Risk 2 (Medium),4800 W FULTON ST ,60644,2019-02-06T00:00:00,Pass w/ Conditions,41.88585156,-87.74553253
375,2261625,McDonalds,Risk 2 (Medium),1951 E 95th ST ,60617,2019-02-06T00:00:00,Pass,41.72235445,-87.57577806
376,2261620,GILHOOLEY'S,Risk 1 (High),3901 W 103RD ST ,60655,2019-02-06T00:00:00,Pass,41.70582355,-87.71853995
377,2261615,FOUNTAIN BBQ CAFE,Risk 1 (High),1848 W 95TH ST ,60643,2019-02-06T00:00:00,No Entry,41.72122968,-87.669492
378,2261614,BELLA'S  PIZZA,Risk 1 (High),1801 W 95TH ST ,60643,2019-02-06T00:00:00,No Entry,41.72103624,-87.66754505
379,2261616,KENTUCKY FRIED CHICKEN,Risk 1 (High),1914 W 79TH ST ,60620,2019-02-06T00:00:00,Pass,41.75036344,-87.67135903
380,2261612,RADAIOS BROS FRANKSVILLE INC,Risk 1 (High),3550 N HARLEM AVE ,60634,2019-02-06T00:00:00,Pass w/ Conditions,41.94494469,-87.80714094
381,2261610,Rub's Backcountry Smokehouse,Risk 1 (High),6954 N WESTERN AVE ,60645,2019-02-06T00:00:00,Out of Business,42.00846047,-87.69030355
382,2261618,GOOGOO'S TABLE,Risk 1 (High),4356 W ARMITAGE AVE ,60639,2019-02-06T00:00:00,Fail,41.91715618,-87.73618932
383,2261623,EAT CLEAN CHICAGO,Risk 1 (High),4930 S CICERO AVE ,60638,2019-02-06T00:00:00,Fail,41.80302897,-87.74317703
384,2261607,POTBELLY SANDWICH SHOP,Risk 1 (High),1560 N WELLS ST ,60610,2019-02-06T00:00:00,Pass w/ Conditions,41.91089478,-87.63484962
385,2261608,Starbuck's Coffee #2568,Risk 2 (Medium),4365 W IRVING PARK RD ,60641,2019-02-06T00:00:00,Pass w/ Conditions,41.95342091,-87.73799691
386,2261604,VIRGEN DE GUADALUPE,Risk 2 (Medium),6410 N FAIRFIELD AVE ,60645,2019-02-06T00:00:00,No Entry,41.99795313,-87.6985867
387,2261603,HUTCH,Risk 1 (High),3301 N CLARK ST ,60657,2019-02-06T00:00:00,Fail,41.94186146,-87.65204754
388,2261601,PASTA D'ARTE,Risk 1 (High),6305-6311 N milwaukee AVE ,60646,2019-02-06T00:00:00,Pass w/ Conditions,41.99534403,-87.7857962
389,2261596,BEEFBELLY,Risk 1 (High),4800-4802 N CENTRAL AVE ,60630,2019-02-06T00:00:00,Out of Business,41.96782599,-87.76762486
390,2261606,BAJA EXPRESS INN TAQUERIA,Risk 1 (High),11128 S HALSTED ST ,60628,2019-02-06T00:00:00,Fail,41.69147211,-87.64250201
391,2261599,KFC,Risk 1 (High),6732 N WESTERN AVE ,60645,2019-02-06T00:00:00,Pass w/ Conditions,42.00419503,-87.69019677
392,2261595,CARMINES,Risk 1 (High),1037-1043 N RUSH ST ,60611,2019-02-06T00:00:00,Pass w/ Conditions,41.90186411,-87.62787745
393,2261597,TANT LLC,Risk 1 (High),5944 W LAKE ST ,60644,2019-02-06T00:00:00,Pass w/ Conditions,41.88810024,-87.77385259
394,2261589,CHICAGO STYLE CONCESSIONS,Risk 1 (High),4545 W DIVISION ST ,60651,2019-02-06T00:00:00,No Entry,41.90233166,-87.74045894
395,2261594,POZOLERIA IGUALA IN CHICAGO INC.,Risk 1 (High),3835 W FULLERTON AVE ,60647,2019-02-06T00:00:00,Fail,41.92441607,-87.72331978
396,2261587,LUIS VEGA ROMERO,Risk 1 (High),4545 W DIVISION ST ,60651,2019-02-06T00:00:00,No Entry,41.90233166,-87.74045894
397,2261586,BABAS FAMOUS STEAK & LEMONADE,Risk 2 (Medium),9529 S JEFFERY AVE ,60617,2019-02-06T00:00:00,Pass w/ Conditions,41.7215582,-87.57518788
398,2261759,TACOS GARCIA,Risk 1 (High),3327-3329 W ARMITAGE AVE ,60647,2019-02-06T00:00:00,No Entry,41.91723821,-87.71141424
399,2261588,EL MILAGRO,Risk 1 (High),1923 S BLUE ISLAND AVE ,60608,2019-02-06T00:00:00,Pass w/ Conditions,41.85532909,-87.66314792
400,2261583,LA BARCA EL TACONAZO,Risk 1 (High),4124 W NORTH AVE ,60639,2019-02-06T00:00:00,Fail,41.90994655,-87.72995037
401,2261579,MAKOTO,Risk 1 (High),5854-5856 N LINCOLN AVE ,60659,2019-02-06T00:00:00,No Entry,41.98779176,-87.70325097
402,2261575,BRAZILIAN BOWL FRESH GRILL,Risk 1 (High),3200 W LAWRENCE AVE ,60625,2019-02-06T00:00:00,Pass w/ Conditions,41.96856056,-87.70853637
403,2261574,RESTAURANT EL MOGOTE,Risk 1 (High),4959 N KEDZIE AVE ,60625,2019-02-06T00:00:00,No Entry,41.9720021,-87.7084294
404,2261562,SUSHI WITH GUSTO,Risk 1 (High),2250 N SHEFFIELD AVE ,60614,2019-02-06T00:00:00,Fail,41.92323687,-87.65368543
405,2261560,CEVICHERIA RIO BALSAS,Risk 1 (High),4545 W DIVISION ST ,60651,2019-02-06T00:00:00,Pass w/ Conditions,41.90233166,-87.74045894
406,2261551,NEVERIA EL SABOR de MEXICO,Risk 1 (High),1639 W 18TH ST ,60608,2019-02-06T00:00:00,Fail,41.85765807,-87.66781976
407,2261550,THE GRILL ON THE ALLEY,Risk 1 (High),909 N MICHIGAN AVE ,60611,2019-02-06T00:00:00,Pass w/ Conditions,41.89953903,-87.623989
408,2261548,PALETERIA EL SABOR DE MEXICO INC.,Risk 2 (Medium),1639 W 18TH ST ,60608,2019-02-06T00:00:00,Out of Business,41.85765807,-87.66781976
409,2261546,KANELA II,Risk 1 (High),1552 N WELLS ST ,60610,2019-02-06T00:00:00,Pass w/ Conditions,41.91067609,-87.63484274
410,2261549,BLISS RESTO,Risk 1 (High),1522-1526 W MONTROSE AVE ,60613,2019-02-06T00:00:00,Pass w/ Conditions,41.96170895,-87.66875485
411,2261544,LA LLAMARADA RESTAURANT,Risk 1 (High),6977 N WESTERN AVE ,60645,2019-02-06T00:00:00,Pass w/ Conditions,42.00853185,-87.69001159
412,2261541,SUBWAY,Risk 1 (High),1313 W TOUHY AVE ,60626,2019-02-05T00:00:00,Fail,42.01270994,-87.6640336
413,2261540,LITTLE OLIVE LOUNGE,Risk 1 (High),1540 N MILWAUKEE AVE ,60622,2019-02-05T00:00:00,Pass w/ Conditions,41.90942003,-87.67619508
414,2261539,SOUTH SHORE BREW,Risk 1 (High),7101 S YATES BLVD ,60649,2019-02-05T00:00:00,Pass,41.76627633,-87.56634042
415,2261542,"UNCLE REMUS RESTAURANT, INC",Risk 1 (High),5611 W MADISON ST ,60644,2019-02-05T00:00:00,Fail,41.88012913,-87.76535056
416,2261535,Links Taproom,Risk 1 (High),1559 N MILWAUKEE AVE ,60622,2019-02-05T00:00:00,No Entry,41.90992611,-87.67653436
417,2261530,STARBUCKS COFFEE #228,Risk 2 (Medium),1001 W ARMITAGE AVE ,60614,2019-02-05T00:00:00,Pass w/ Conditions,41.9179944,-87.65341562
418,2261528,COCHIAROS PIZZA #2,Risk 1 (High),4741 W FULLERTON AVE ,60639,2019-02-05T00:00:00,Fail,41.92414063,-87.74552934
419,2261533,LITTLE CAESAR PIZZA,Risk 2 (Medium),6928 S PULASKI RD ,60629,2019-02-05T00:00:00,Pass w/ Conditions,41.76686758,-87.72261004
420,2261531,SUBWAY,Risk 1 (High),7949 S CICERO AVE ,60652,2019-02-05T00:00:00,Pass w/ Conditions,41.74811555,-87.74115765
421,2261526,EGGSPERIENCE,Risk 1 (High),33 W ONTARIO ST ,60654,2019-02-05T00:00:00,Pass,41.89314176,-87.6295306
422,2261534,LA PERLA TAPATIA,Risk 1 (High),3251 W NORTH AVE ,60647,2019-02-05T00:00:00,Fail,41.90997648,-87.70907872
423,2268244,ALEX LA MICHOACANA,Risk 1 (High),4819 W Diversey AVE ,60639,2019-02-05T00:00:00,No Entry,41.93141405,-87.74740231
424,2261522,LUCKY STRIKE,Risk 1 (High),1025 W ADDISON ST ,60613,2019-02-05T00:00:00,Pass,41.94711775,-87.65538116
425,2261521,BONIVINO'S INC,Risk 1 (High),109 - 111 W VAN BUREN ST ,60605,2019-02-05T00:00:00,Pass,41.87677124,-87.63106138
426,2261520,LUCKY STRIKE,Risk 1 (High),1025 W ADDISON ST ,60613,2019-02-05T00:00:00,Pass,41.94711775,-87.65538116
427,2261523,FOX'S BEVERLY PUB,Risk 1 (High),9956 S WESTERN AVE ,60643,2019-02-05T00:00:00,Fail,41.71201213,-87.68193541
428,2261536,WOO CHON RESTAURANT,Risk 1 (High),5744 N CALIFORNIA AVE ,60659,2019-02-05T00:00:00,Pass w/ Conditions,41.9863124,-87.69941016
429,2261515,CALUMET FISHERIES INC,Risk 1 (High),3259 E 95TH ST ,60617,2019-02-05T00:00:00,Fail,41.72273269,-87.54453083
430,2261519,CHIPOTLE MEXICAN GRILL #2796,Risk 1 (High),7561 S CICERO AVE ,60652,2019-02-05T00:00:00,Pass,41.75487185,-87.74139243
431,2261512,HQ HOWARD QUINTERO,Risk 1 (High),4114 N KEDZIE AVE ,60618,2019-02-05T00:00:00,No Entry,41.9561934,-87.70823033
432,2261511,MUGS PIZZA & RIBS,Risk 1 (High),7228 N HARLEM AVE ,60631,2019-02-05T00:00:00,No Entry,42.01259291,-87.80677399
433,2261509,THE HIDDEN COVE,Risk 3 (Low),5338 N LINCOLN AVE ,60625,2019-02-05T00:00:00,Fail,41.97885403,-87.69278877
434,2261524,LA COSTA,Risk 1 (High),3119-3121 N CENTRAL AVE ,60634,2019-02-05T00:00:00,Pass w/ Conditions,41.93735507,-87.76630745
435,2261507,"BIG CHICKS, INC.",Risk 1 (High),5024 N SHERIDAN RD ,60640,2019-02-05T00:00:00,Pass,41.97406912,-87.65509449
436,2261503,MARTINI CLUB AT MANOR BOWLING & BILLIARD,Risk 1 (High),3124 N CENTRAL AVE ,60634,2019-02-05T00:00:00,No Entry,41.93751956,-87.76660696
437,2261527,CAFE BLEU,Risk 2 (Medium),7224 N HARLEM AVE ,60631,2019-02-05T00:00:00,Pass w/ Conditions,42.01248046,-87.80677569
438,2261502,BROOKLYN CHICKEN & GRILL INC,Risk 1 (High),1358 E 75TH ST ,60619,2019-02-05T00:00:00,Pass w/ Conditions,41.75883292,-87.59086222
439,2261501,WILEY'S CHICKEN & RIBS,Risk 1 (High),3853 W Madison ST ,60624,2019-02-05T00:00:00,Pass,41.88065243,-87.72289201
440,2261499,POPEYE'S #831,Risk 1 (High),1959 W HOWARD ST ,60626,2019-02-05T00:00:00,Fail,42.01933311,-87.68002153
441,2261497,SAI CAFE,Risk 1 (High),2010 N SHEFFIELD AVE ,60614,2019-02-05T00:00:00,Fail,41.91847496,-87.65352812
442,2261496,LA  MICHOACANA,Risk 1 (High),2049 W CERMAK RD ,60608,2019-02-05T00:00:00,Pass w/ Conditions,41.85203469,-87.67778652
443,2261500,NELLIES,Risk 1 (High),2458 W DIVISION ST ,60622,2019-02-05T00:00:00,Pass w/ Conditions,41.90310359,-87.68934332
444,2261493,BEST BBQ,Risk 1 (High),1648 W 115TH ST ,60643,2019-02-05T00:00:00,Pass w/ Conditions,41.68489261,-87.66364029
445,2261489,"EL ORIGINAL CHAVAS TACOS, INC.",Risk 1 (High),2333 W GRAND AVE ,60612,2019-02-05T00:00:00,Fail,41.89056936,-87.68557425
446,2261487,YES,Risk 1 (High),5211 N DAMEN AVE ,60625,2019-02-05T00:00:00,Pass w/ Conditions,41.97639504,-87.67926724
447,2261485,JUST SALAD,Risk 1 (High),20 E JACKSON BLVD ,60604,2019-02-05T00:00:00,Pass w/ Conditions,41.87833498,-87.62696158
448,2261483,MATSUYA JAPANESE RESTAURANT,Risk 1 (High),3242 N CLARK ST ,60657,2019-02-05T00:00:00,Fail,41.94097203,-87.6516706
449,2261479,SHERATON CHICAGO HOTEL/TOWER,Risk 1 (High),301 E NORTH WATER ST ,60611,2019-02-05T00:00:00,Pass w/ Conditions,41.88945828,-87.62036838
450,2261477,EMERALD CITY COFFEE,Risk 1 (High),1224 W WILSON AVE ,60640,2019-02-05T00:00:00,Pass w/ Conditions,41.96546092,-87.66064093
451,2261472,MCDONALDS RESTAURANT,Risk 2 (Medium),6900 N WESTERN AVE ,60645,2019-02-05T00:00:00,Pass w/ Conditions,42.00685124,-87.6902606
452,2261475,JACK AND GINGERS,Risk 1 (High),2048 W ARMITAGE AVE ,60647,2019-02-05T00:00:00,Pass w/ Conditions,41.91782992,-87.67953075
453,2261470,STACKERZ,Risk 1 (High),5729 N NORTHWEST HWY ,60646,2019-02-05T00:00:00,Pass w/ Conditions,41.98600114,-87.78752792
454,2261468,ORBIT ROOM CHICAGO,Risk 1 (High),2957-2959 N CALIFORNIA AVE ,60618,2019-02-05T00:00:00,Pass,41.93562554,-87.69757532
455,2261467,BARTON G - THE RESTAURANT,Risk 1 (High),415 N DEARBORN ST ,60654,2019-02-05T00:00:00,Pass,41.88978309,-87.6294536
456,2261465,BARTON G - THE RESTAURANT,Risk 1 (High),415 N DEARBORN ST ,60654,2019-02-05T00:00:00,Pass,41.88978309,-87.6294536
457,2261458,RESTAURANTE SALVADORENO OLOCUILTA INC,Risk 1 (High),3658 W LAWRENCE AVE ,60625,2019-02-05T00:00:00,Pass w/ Conditions,41.96843263,-87.72063796
458,2261456,CAFE 7,Risk 1 (High),1620 W HARRISON ST ,60612,2019-02-05T00:00:00,Pass w/ Conditions,41.87429616,-87.66761281
459,2261461,SUBWAY,Risk 1 (High),205 E OHIO ST ,60611,2019-02-05T00:00:00,Pass w/ Conditions,41.89245401,-87.62241522
460,2261452,CEBU BAR AND GRILL,Risk 1 (High),2211 W NORTH AVE ,60647,2019-02-05T00:00:00,Pass,41.91027701,-87.68286119
461,2261453,TAQUERIA TACO BUENO INC.,Risk 1 (High),2057 W CERMAK RD ,60608,2019-02-05T00:00:00,Pass w/ Conditions,41.85203031,-87.67809097
462,2261450,CEBU BAR AND GRILL,Risk 1 (High),2211 W NORTH AVE ,60647,2019-02-05T00:00:00,Pass,41.91027701,-87.68286119
463,2261449,ORIGINAL PANCAKE HOUSE,Risk 1 (High),10437 S WESTERN AVE ,60643,2019-02-05T00:00:00,Pass w/ Conditions,41.70344854,-87.68138191
464,2261443,ARTURO'S TACOS,Risk 1 (High),2001 N WESTERN AVE ,60647,2019-02-04T00:00:00,Pass w/ Conditions,41.91760789,-87.687264
465,2261442,BONCHON,Risk 1 (High),1732 W DIVISION ST ,60622,2019-02-04T00:00:00,Pass w/ Conditions,41.90339206,-87.67137668
466,2261441,Bread & Wine,Risk 1 (High),3732-3734 W Irving Park RD ,60618,2019-02-04T00:00:00,Out of Business,41.95384697,-87.72162849
467,2261439,LA MICHOACANA IN LOGAN SQUARE,Risk 1 (High),3740 W FULLERTON AVE ,60647,2019-02-04T00:00:00,Pass w/ Conditions,41.92466148,-87.72111624
468,2261438,B -SIDE BURGER,Risk 1 (High),3732-3734 W Irving Park RD ,60618,2019-02-04T00:00:00,Pass w/ Conditions,41.95384697,-87.72162849
469,2261436,PASTA D'ARTE,Risk 1 (High),6305-6311 N milwaukee AVE ,60646,2019-02-04T00:00:00,No Entry,41.99534403,-87.7857962
470,2261433,WINGERS,Risk 2 (Medium),1368 E 53RD ST ,60615,2019-02-01T00:00:00,Out of Business,41.79961156,-87.59253344
471,2261432,THE SOUL SHACK,Risk 1 (High),1368 E 53RD ST ,60615,2019-02-01T00:00:00,Pass w/ Conditions,41.79961156,-87.59253344
472,2261430,EL FARO CARIBBEAN SEAFOOD,Risk 1 (High),2701 W DIVISION ST ,60622,2019-02-01T00:00:00,No Entry,41.90283677,-87.69453754
473,2261431,AFC SUSHI @ JEWEL OSCO  #3082,Risk 1 (High),6014 S COTTAGE GROVE AVE ,60637,2019-02-01T00:00:00,Pass w/ Conditions,41.78538744,-87.60618376
474,2261427,TAOS RESTAURANT,Risk 1 (High),2114 W ROSCOE ST ,60618,2019-02-01T00:00:00,Pass w/ Conditions,41.94328855,-87.68152785
475,2261428,PALETERIA LA CEIBA INC.,Risk 2 (Medium),5858 W GRAND AVE ,60639,2019-02-01T00:00:00,Pass w/ Conditions,41.92018907,-87.77297844
476,2261425,TAQUERIA LA CANTERA,Risk 1 (High),3452 S WESTERN AVE ,60608,2019-02-01T00:00:00,Out of Business,41.83046066,-87.68518673
477,2261420,PALETERIA LA CEIBA INC.,Risk 2 (Medium),4253 1/2 W FULLERTON AVE ,60639,2019-02-01T00:00:00,Out of Business,41.92429008,-87.73381781
478,2261419,"CHAN'S KING WOK, INC",Risk 1 (High),2323 W MADISON ST ,60612,2019-02-01T00:00:00,Pass w/ Conditions,41.88107532,-87.68492409
479,2261424,China Wok Restuarant,Risk 1 (High),3106 N CENTRAL AVE ,60634,2019-02-01T00:00:00,Pass w/ Conditions,41.93701055,-87.76659046
480,2261417,LA VECCHIA TRATTORIA INC,Risk 1 (High),7419 W IRVING PARK RD ,60634,2019-02-01T00:00:00,No Entry,41.95252417,-87.81303324
481,2261414,YES,Risk 1 (High),5211 N DAMEN AVE ,60625,2019-02-01T00:00:00,No Entry,41.97639504,-87.67926724
482,2261412,CAPONIES TRATTORIA,Risk 1 (High),7419 W IRVING PARK RD ,60634,2019-02-01T00:00:00,Out of Business,41.95252417,-87.81303324
483,2261411,SUBWAY,Risk 1 (High),1525 W MADISON ST ,60607,2019-02-01T00:00:00,Pass w/ Conditions,41.88135674,-87.66549935
484,2261423,SUBWAY,Risk 1 (High),8331 S STEWART AVE ,60620,2019-02-01T00:00:00,Fail,41.74257762,-87.63393693
485,2261415,BURGER KING,Risk 2 (Medium),2328 S MICHIGAN AVE ,60616,2019-02-01T00:00:00,Pass w/ Conditions,41.85022714,-87.62388554
486,2261408,GREEN TEA JAPANESE RESTAURANT,Risk 1 (High),2206 N CLARK ST ,60614,2019-02-01T00:00:00,Pass w/ Conditions,41.92214605,-87.63854595
487,2261407,SALAD WORKS,Risk 1 (High),11601 W TOUHY AVE ,60666,2019-02-01T00:00:00,Fail,42.0085364,-87.91442844
488,2261410,Italian Pizza Kitchen,Risk 1 (High),823 W EASTMAN ST ,60642,2019-02-01T00:00:00,Pass,41.90734971,-87.64926041
489,2261405,MANCHU WOK,Risk 1 (High),11601 W TOUHY AVE ,60666,2019-02-01T00:00:00,Pass w/ Conditions,42.0085364,-87.91442844
490,2261409,TACO BELL #27900,Risk 1 (High),1644 W 95TH ST ,60643,2019-02-01T00:00:00,Pass w/ Conditions,41.72130045,-87.66434336
491,2261413,FRESHII,Risk 1 (High),845 N MICHIGAN AVE ,60611,2019-02-01T00:00:00,Pass,41.89807992,-87.62394571
492,2261400,TAQUERIA LOS PORTALES,Risk 1 (High),1418 W MORSE AVE ,60626,2019-02-01T00:00:00,Pass,42.00800274,-87.66671916
493,2261396,Big Hill Cantina,Risk 1 (High),3307 W BRYN MAWR AVE ,60659,2019-02-01T00:00:00,No Entry,41.98292525,-87.71161309
494,2261395,TAQUERIA GOMEZ,Risk 1 (High),3635 W 31ST ST ,60623,2019-02-01T00:00:00,Pass,41.83692247,-87.71595347
495,2261392,FURIOUS SPOON,Risk 1 (High),5406 N CLARK ST ,60640,2019-02-01T00:00:00,Pass,41.98005946,-87.66844179
496,2261394,LA BRUQUENA RESTAURANT & LOUNGE,Risk 1 (High),2726 W DIVISION ST ,60622,2019-02-01T00:00:00,Pass w/ Conditions,41.90304639,-87.69553513
497,2261389,TASTY CHINESE FOOD,Risk 1 (High),3051 N CALIFORNIA AVE ,60618,2019-02-01T00:00:00,Pass w/ Conditions,41.93729113,-87.69761823
498,2261390,RESTAURANT MARISCOS NAYARIT,Risk 1 (High),4318 W FULLERTON AVE ,60639,2019-02-01T00:00:00,Pass w/ Conditions,41.92449645,-87.73488884
499,2261388,MONTEVERDE,Risk 1 (High),1020-1022 W MADISON ST ,60607,2019-02-01T00:00:00,No Entry,41.8817936,-87.65296525
500,2261387,NEW PUNJAB SWEET,Risk 1 (High),6411 N WESTERN AVE ,60645,2019-02-01T00:00:00,Pass w/ Conditions,41.99810458,-87.68974802
501,2261391,HotChocolate,Risk 1 (High),1747 N DAMEN AVE ,60647,2019-02-01T00:00:00,Pass w/ Conditions,41.91367837,-87.6773884
502,2261386,Maude's,Risk 1 (High),840 W RANDOLPH ST ,60607,2019-02-01T00:00:00,No Entry,41.88449069,-87.649016
503,2261385,CHINA CAFE,Risk 1 (High),4818 N SHERIDAN RD ,60640,2019-02-01T00:00:00,Pass,41.96967995,-87.65498242
504,2261381,WINGSTOP,Risk 1 (High),830 N MILWAUKEE ,60642,2019-02-01T00:00:00,Pass w/ Conditions,41.89691824,-87.65668624
505,2261380,EL GALLO MEXICAN FOOD INC.,Risk 1 (High),2547 W 111TH ST ,60655,2019-02-01T00:00:00,Pass w/ Conditions,41.69163955,-87.68537627
506,2261377,TAQUERIA LOS COMALES #1 INC,Risk 1 (High),3141 W 26TH ST ,60623,2019-02-01T00:00:00,Pass w/ Conditions,41.84441606,-87.70421001
507,2261374,LUCKY STRIKE,Risk 1 (High),1025 W ADDISON ST ,60613,2019-02-01T00:00:00,Fail,41.94711775,-87.65538116
508,2261373,GUEY LON RESTAURANT,Risk 1 (High),3968 N ELSTON AVE ,60618,2019-02-01T00:00:00,Pass,41.95333251,-87.71879172
509,2261379,2 ASIAN BROTHERS,Risk 1 (High),3222 W FOSTER AVE ,60625,2019-02-01T00:00:00,Fail,41.97584741,-87.70960356
510,2261370,BARTON G - THE RESTAURANT,Risk 1 (High),415 N DEARBORN ST ,60654,2019-02-01T00:00:00,Fail,41.88978309,-87.6294536
511,2261363,AMSTAR FUEL & MINI MART,Risk 1 (High),8903 S SOUTH CHICAGO AVE ,60617,2019-02-01T00:00:00,Fail,41.73364645,-87.56055303
512,2261358,NELLIES,Risk 1 (High),2458 W DIVISION ST ,60622,2019-02-01T00:00:00,Fail,41.90310359,-87.68934332
513,2261362,ORIGINAL ALPS,Risk 1 (High),3637 W IRVING PARK RD ,60618,2019-02-01T00:00:00,Pass w/ Conditions,41.95362464,-87.71931085
514,2261369,BARTON G - THE RESTAURANT,Risk 1 (High),415 N DEARBORN ST ,60654,2019-02-01T00:00:00,Fail,41.88978309,-87.6294536
515,2261360,LUCKY STRIKE,Risk 1 (High),1025 W ADDISON ST ,60613,2019-02-01T00:00:00,Fail,41.94711775,-87.65538116
516,2261368,BRYN MAWR BREAKFAST CLUB,Risk 1 (High),3348-3352 W BRYN MAWR AVE ,60659,2019-02-01T00:00:00,Pass w/ Conditions,41.98312217,-87.71329067
517,2261359,BJ'S MARKET & BAKERY,Risk 1 (High),1156 W 79TH ST ,60620,2019-02-01T00:00:00,Fail,41.75060829,-87.65359464
518,2261355,AU BON PAIN,Risk 1 (High),1653 W CONGRESS PKWY ,60612,2019-02-01T00:00:00,Fail,41.87503334,-87.668753
519,2261351,CARIBELLA,Risk 1 (High),3311 W FULLERTON AVE ,60647,2019-02-01T00:00:00,Fail,41.92456429,-87.71106463
520,2261345,Snappy Convenience Center #7,Risk 1 (High),3960 W IRVING PARK RD ,60618,2019-02-01T00:00:00,Pass,41.95375843,-87.72755892
521,2261342,PANERA BREAD #987,Risk 1 (High),1101 S CANAL ST ,60607,2019-02-01T00:00:00,Pass w/ Conditions,41.86888971,-87.63909893
522,2261343,Aquarius Club & Restaurant,Risk 1 (High),2457-2459 N PULASKI RD ,60639,2019-02-01T00:00:00,Pass,41.92617421,-87.72667174
523,2261339,"CHICAGO WINGS AROUND THE WORLD 61ST & HALSTED,INC",Risk 1 (High),748 W 61ST ST ,60621,2019-02-01T00:00:00,Pass w/ Conditions,41.78350298,-87.64438638
524,2261338,MUSCLE BAR,Risk 2 (Medium),1804 W LAWRENCE AVE ,60640,2019-01-31T00:00:00,Pass w/ Conditions,41.96892356,-87.67482236
525,2261327,STONE CREEK COFFEE,All,939 W BELMONT AVE ,60657,2019-01-30T00:00:00,Not Ready,41.93981315,-87.65309086
526,2261331,THE SOUL SHACK,Risk 1 (High),1368 E 53RD ST ,60615,2019-01-29T00:00:00,Not Ready,41.79961156,-87.59253344
527,2261318,POPEYES,Risk 1 (High),6622 W FULLERTON AVE ,60707,2019-01-29T00:00:00,Pass w/ Conditions,41.9237393,-87.79134898
528,2261322,VIVI BUBBLE TEA,Risk 2 (Medium),333 S State ST BLDG ,60604,2019-01-29T00:00:00,Pass w/ Conditions,41.87739694,-87.62751493
529,2261320,J J FISH & CHICKEN,Risk 2 (Medium),7908 S HALSTED ST ,60620,2019-01-29T00:00:00,Pass w/ Conditions,41.75032239,-87.64418241
530,2261316,JACK AND GINGERS,Risk 1 (High),2048 W ARMITAGE AVE ,60647,2019-01-29T00:00:00,Fail,41.91782992,-87.67953075
531,2261317,"MR. CRAB FISH CHICKEN AND GRILL, INC. OF CHICAGO",Risk 2 (Medium),1454 W 95TH ST ,60643,2019-01-29T00:00:00,Pass,41.7213558,-87.66003974
532,2261314,TAOS RESTAURANT,Risk 1 (High),2114 W ROSCOE ST ,60618,2019-01-29T00:00:00,Pass w/ Conditions,41.94328855,-87.68152785
533,2261313,MRS MURPHYS AND SONS IRISH  BISTRO,Risk 1 (High),3905 N LINCOLN AVE ,60613,2019-01-29T00:00:00,Pass w/ Conditions,41.95255855,-87.67747503
534,2261312,EL GARCIA RESTAURANT,Risk 1 (High),7517 N WESTERN AVE ,60645,2019-01-29T00:00:00,Pass,42.0180696,-87.6900424
535,2261311,LA PALAPA INC.,Risk 1 (High),2000 W 34TH ST ,60608,2019-01-29T00:00:00,Pass w/ Conditions,41.83231584,-87.67538617
536,2261309,"MAYFLOWER SEAFOOD RESTAURANT, LLC",Risk 1 (High),2225 S WENTWORTH AVE ,60616,2019-01-29T00:00:00,Fail,41.85213019,-87.63185039
537,2261305,ROGERS PIER,Risk 1 (High),6800-6806 N SHERIDAN RD ,60626,2019-01-29T00:00:00,Out of Business,42.00558686,-87.66107732
538,2261310,KUDOS,Risk 1 (High),5858 N LINCOLN AVE ,60659,2019-01-29T00:00:00,Pass w/ Conditions,41.98786036,-87.70336738
539,2261308,DONA TORTA,Risk 1 (High),3331 W 26TH ST ,60623,2019-01-29T00:00:00,Pass w/ Conditions,41.84435801,-87.70862525
540,2261304,IBORU EL PULPO LOCO,Risk 1 (High),6619 N CLARK ST ,60626,2019-01-29T00:00:00,Pass w/ Conditions,42.0023417,-87.67192512
541,2261306,D'CUBA,Risk 1 (High),5653 W FULLERTON AVE ,60639,2019-01-29T00:00:00,Pass w/ Conditions,41.92383773,-87.76812296
542,2261303,CUBA 312,Risk 1 (High),2054 W ROSCOE ST ,60618,2019-01-29T00:00:00,No Entry,41.94330118,-87.68065079
543,2261300,POPEYES,Risk 2 (Medium),9516 S VINCENNES AVE ,60643,2019-01-29T00:00:00,Fail,41.72093183,-87.65094179
544,2261301,THE ANGRY CRAB,Risk 1 (High),5665 N LINCOLN AVE ,60659,2019-01-29T00:00:00,Pass w/ Conditions,41.98450761,-87.69722674
545,2261293,CHINESE KITCHEN,Risk 1 (High),5316 N MILWAUKEE AVE ,60630,2019-01-29T00:00:00,Pass w/ Conditions,41.97693689,-87.76907431
546,2261296,UNCLE REMUS,Risk 1 (High),4731 W MADISON ST ,60644,2019-01-29T00:00:00,Pass,41.88040118,-87.74408952
547,2261289,RESTAURANT  EL ASADOR II,Risk 1 (High),4014 W 26TH ST ,60623,2019-01-29T00:00:00,Out of Business,41.84435645,-87.72520459
548,2261330,THE DUCK INN,Risk 1 (High),2701 S ELEANOR ST ,60608,2019-01-29T00:00:00,No Entry,41.84453129,-87.66011645
549,2261288,EL NUEVO SOL DE MEXICO,Risk 1 (High),6418 N WESTERN AVE ,60645,2019-01-29T00:00:00,Pass w/ Conditions,41.99832436,-87.69004959
550,2261283,SUBWAY,Risk 1 (High),300 E RANDOLPH ST ,60601,2019-01-29T00:00:00,Pass w/ Conditions,41.88462378,-87.62047604
551,2261278,THE CHICAGO HOUSE OF 'ZA VEGAN PIZZERIA,Risk 1 (High),1939-1943 W BYRON ST ,60613,2019-01-29T00:00:00,Pass,41.95223787,-87.67780411
552,2261329,CHILAM BALAM,Risk 1 (High),3023 N BROADWAY ST ,60657,2019-01-29T00:00:00,No Entry,41.93720097,-87.64415793
553,2261328,REDMOND'S,Risk 1 (High),3356-3358 N SHEFFIELD AVE ,60657,2019-01-29T00:00:00,No Entry,41.94342007,-87.65436004
554,2261276,BI BI BOP,Risk 1 (High),24 E JACKSON BLVD ,60604,2019-01-29T00:00:00,Pass w/ Conditions,41.87833792,-87.62681985
555,2261271,CAFE 7,Risk 1 (High),1620 W HARRISON ST ,60612,2019-01-29T00:00:00,Fail,41.87429616,-87.66761281
556,2261272,ARAMARK EDUCATION SERVICES,Risk 1 (High),13300 S LANGLEY ,60827,2019-01-29T00:00:00,Pass,41.6536366,-87.60507067
557,2261266,SUBWAY,Risk 1 (High),1121 N WESTERN AVE ,60622,2019-01-29T00:00:00,Pass w/ Conditions,41.90181809,-87.68685364
558,2261265,DOLLOP DINER,Risk 1 (High),5060 N CLARK ST ,60640,2019-01-29T00:00:00,Fail,41.97424236,-87.6683414
559,2261264,CEBU BAR AND GRILL,Risk 1 (High),2211 W NORTH AVE ,60647,2019-01-29T00:00:00,Fail,41.91027701,-87.68286119
560,2261262,THE HAPPY LOBSTER,Risk 1 (High),131 N CLINTON ST ,60661,2019-01-29T00:00:00,Pass w/ Conditions,41.88418751,-87.64111967
561,2261261,CEBU BAR AND GRILL,Risk 1 (High),2211 W NORTH AVE ,60647,2019-01-29T00:00:00,Fail,41.91027701,-87.68286119
562,2261256,RICKSHAW REPUBLIC,Risk 1 (High),2312 N LINCOLN AVE ,60614,2019-01-29T00:00:00,Pass,41.92387941,-87.64678377
563,2261269,JOE'S IMPORTS,Risk 3 (Low),813 W FULTON MARKET ,60607,2019-01-29T00:00:00,Pass,41.88668324,-87.64808832
564,2261259,JOE'S IMPORTS,Risk 1 (High),813 W FULTON MARKET ,60607,2019-01-29T00:00:00,Pass,41.88668324,-87.64808832
565,2261258,HOUNDSTOOTH SALOON,Risk 1 (High),3365-3369 N CLARK ST ,60657,2019-01-29T00:00:00,Pass w/ Conditions,41.94345707,-87.653356
566,2261254,THE CHICAGO HOUSE OF 'ZA VEGAN PIZZERIA,Risk 1 (High),1939-1943 W BYRON ST ,60613,2019-01-29T00:00:00,Pass,41.95223787,-87.67780411
567,2261253,DUNKIN DONUTS,Risk 2 (Medium),7578 N WESTERN AVE ,60645,2019-01-29T00:00:00,Pass w/ Conditions,42.019439,-87.69032202
568,2261249,PARK VIEW RESTAURANT,Risk 1 (High),2000 W 19TH ST ,60608,2019-01-29T00:00:00,Pass w/ Conditions,41.85594278,-87.67607275
569,2261245,EDDIE'S SANDWISHES,Risk 2 (Medium),2721 W DIVISION ST ,60622,2019-01-28T00:00:00,Out of Business,41.90282932,-87.69530161
570,2261243,BONIVINO'S INC,Risk 1 (High),109 - 111 W VAN BUREN ST ,60605,2019-01-28T00:00:00,Fail,41.87677124,-87.63106138
571,2261242,LOS CARBONES,Risk 1 (High),9710 S COMMERCIAL AVE ,60617,2019-01-28T00:00:00,Pass w/ Conditions,41.71874411,-87.55117213
572,2261248,BRAZILIAN BOWL FRESH GRILL,Risk 1 (High),3200 W LAWRENCE AVE ,60625,2019-01-28T00:00:00,Fail,41.96856056,-87.70853637
573,2261239,LOKAL CONTEMPORARY EUROPEAN,Risk 1 (High),2500 N ASHLAND AVE ,60614,2019-01-28T00:00:00,Pass w/ Conditions,41.92705136,-87.66835948
574,2261236,SIMI'S,Risk 1 (High),6310 N WESTERN AVE ,60659,2019-01-28T00:00:00,No Entry,41.99628183,-87.68998285
575,2261237,BLAZING BURGER N WINGS LLC,Risk 2 (Medium),2407 W LAWRENCE AVE ,60625,2019-01-28T00:00:00,Pass w/ Conditions,41.96850352,-87.68920202
576,2261235,BEST SUB CORNER INC,Risk 2 (Medium),2407 W LAWRENCE AVE ,60625,2019-01-28T00:00:00,Out of Business,41.96850352,-87.68920202
577,2261238,GO 4 FOOD INC.,Risk 1 (High),212 W 23RD ST ,60616,2019-01-28T00:00:00,Fail,41.85107867,-87.63255649
578,2261233,LA LLAMARADA RESTAURANT,Risk 1 (High),6977 N WESTERN AVE ,60645,2019-01-28T00:00:00,Fail,42.00853185,-87.69001159
579,2261241,CHICAGO PHILLY STOP,Risk 1 (High),1600 W Lake ST ,60612,2019-01-28T00:00:00,Pass w/ Conditions,41.88543499,-87.66708806
580,2261232,RYHANAS CUISINE,Risk 1 (High),2253 W TAYLOR ST ,60612,2019-01-28T00:00:00,Out of Business,41.86890622,-87.68335384
581,2261230,LA SANDWICHERA,Risk 2 (Medium),2721 W DIVISION ST ,60622,2019-01-28T00:00:00,Pass w/ Conditions,41.90282932,-87.69530161
582,2261229,CHIPOTLE,Risk 1 (High),1132 S CLINTON ST ,60607,2019-01-28T00:00:00,Pass,41.86797281,-87.64089226
583,2261226,TAQUERIA LOS GALLOS 3 INC.,Risk 1 (High),6222 S ARCHER AVE ,60638,2019-01-28T00:00:00,Pass w/ Conditions,41.79379959,-87.77555763
584,2261228,"KOPI, A TRAVELER'S CAFE",Risk 1 (High),5317 N CLARK ST ,60640,2019-01-28T00:00:00,Pass,41.9786074,-87.66817641
585,2261227,LA SANDWICHERA,Risk 2 (Medium),2721 W DIVISION ST ,60622,2019-01-28T00:00:00,No Entry,41.90282932,-87.69530161
586,2261224,TOP DOG II,Risk 1 (High),3961 W IRVING PARK RD ,60618,2019-01-28T00:00:00,No Entry,41.95354001,-87.72747981
587,2261222,THE GRILL ON THE ALLEY,Risk 1 (High),909 N MICHIGAN AVE ,60611,2019-01-28T00:00:00,Fail,41.89953903,-87.623989
588,2261225,MAYFLOWER RESTAURANT,Risk 1 (High),5240 N PULASKI RD ,60630,2019-01-28T00:00:00,Pass w/ Conditions,41.97675231,-87.72841362
589,2261219,NOODLES PARTY,Risk 1 (High),4205 W LAWRENCE AVE ,60630,2019-01-28T00:00:00,No Entry,41.96807267,-87.73319722
590,2261220,SUBWAY,Risk 1 (High),1101 W BRYN MAWR AVE ,60660,2019-01-28T00:00:00,Pass w/ Conditions,41.98354699,-87.65810609
591,2261223,CHIPOTLE MEXICAN GRILL,Risk 1 (High),5961 N LINCOLN AVE ,60659,2019-01-28T00:00:00,Pass w/ Conditions,41.98950582,-87.70565777
592,2261215,TASTY CHINESE FOOD,Risk 1 (High),3051 N CALIFORNIA AVE ,60618,2019-01-28T00:00:00,No Entry,41.93729113,-87.69761823
593,2261213,Aquarius Club & Restaurant,Risk 1 (High),2457-2459 N PULASKI RD ,60639,2019-01-28T00:00:00,Fail,41.92617421,-87.72667174
594,2261211,"A.P. DELI RESTAURANT GROUP, INC.",Risk 1 (High),10758 S MICHIGAN AVE ,60628,2019-01-28T00:00:00,Fail,41.69817,-87.6210242
595,2261214,AL'S BEEF,Risk 1 (High),234 S WABASH AVE ,60604,2019-01-28T00:00:00,Pass w/ Conditions,41.87867435,-87.6262423
596,2261336,ANTEPRIMA,Risk 1 (High),5316 N CLARK ST ,60640,2019-01-28T00:00:00,No Entry,41.97861615,-87.66847039
597,2261335,EL TIPICO MEXICAN GRILL,Risk 1 (High),1905-1907 W FOSTER AVE ,60640,2019-01-28T00:00:00,Out of Business,41.97596207,-87.67664451
598,2253206,EL PRESIDENTE RESTAURANT,Risk 1 (High),2558 N ASHLAND AVE ,60614,2019-01-28T00:00:00,Pass w/ Conditions,41.92868241,-87.66841493
599,2253207,STRINGS,Risk 1 (High),2141 S ARCHER AVE ,60616,2019-01-28T00:00:00,Pass w/ Conditions,41.85344447,-87.63334565
600,2253204,ARTURO'S TACOS,Risk 1 (High),2001 N WESTERN AVE ,60647,2019-01-28T00:00:00,Fail,41.91760789,-87.687264
601,2253196,LA CONDESA,Risk 1 (High),1003 N ASHLAND AVE ,60622,2019-01-28T00:00:00,Pass w/ Conditions,41.89981866,-87.66724858
602,2253193,PORTILLO'S HOT DOGS,Risk 1 (High),520 W TAYLOR ST ,60607,2019-01-28T00:00:00,Pass,41.8698556,-87.64027031
603,2253187,SUBWAY,Risk 1 (High),3601 N WESTERN AVE ,60618,2019-01-28T00:00:00,Pass w/ Conditions,41.9468234,-87.68811263
604,2253188,STARBUCKS COFFEE,Risk 2 (Medium),200 S MICHIGAN AVE FL ,60604,2019-01-28T00:00:00,Fail,41.87948933,-87.62449812
605,2261255,HERNANDEZ ENTERPRISES INC,Risk 1 (High),6983 N CLARK ST ,60626,2019-01-28T00:00:00,Pass w/ Conditions,42.00895173,-87.67380377
606,2253184,DUNKIN DONUTS,Risk 2 (Medium),3843 N CICERO AVE ,60641,2019-01-28T00:00:00,Pass w/ Conditions,41.95106521,-87.74710291
607,2253181,SUBWAY,Risk 1 (High),6456 W 63RD ST ,60638,2019-01-28T00:00:00,Pass w/ Conditions,41.7777511,-87.78356604
608,2253175,JACKSON TAVERN,Risk 1 (High),216 W JACKSON BLVD ,60606,2019-01-25T00:00:00,Pass w/ Conditions,41.87822324,-87.63424738
609,2253171,LO MEJOR DE LO MEJOR,Risk 1 (High),3859 W 26TH ST ,60623,2019-01-25T00:00:00,Not Ready,41.84417514,-87.72204722
610,2253170,BAREBURGER,Risk 1 (High),3357 N LINCOLN AVE ,60657,2019-01-25T00:00:00,Out of Business,41.94303376,-87.67084228
611,2253169,MS. VETTS WAY CORP,Risk 1 (High),6237 N WESTERN AVE ,60659,2019-01-25T00:00:00,Out of Business,41.99520237,-87.68965321
612,2253168,ISLAND VIBES,Risk 1 (High),1442 W 103RD ST ,60643,2019-01-25T00:00:00,Pass,41.70685163,-87.65894641
613,2253177,KAM FUNG RESTAURANT,Risk 1 (High),216 W 22ND PL ,60616,2019-01-25T00:00:00,Pass w/ Conditions,41.85227106,-87.63272836
614,2253173,BROOKLYN CHICKEN & GRILL INC,Risk 1 (High),1358 E 75TH ST ,60619,2019-01-25T00:00:00,Fail,41.75883292,-87.59086222
615,2253166,RINCONCITO ECUATORIANO,Risk 1 (High),3041 W IRVING PARK RD ,60618,2019-01-25T00:00:00,Pass w/ Conditions,41.95383013,-87.70480536
616,2253163,VELVET TACO,Risk 1 (High),1110 N STATE ST ,60610,2019-01-25T00:00:00,Pass,41.90212753,-87.6285014
617,2253174,BJ'S MARKET & BAKERY,Risk 1 (High),1156 W 79TH ST ,60620,2019-01-25T00:00:00,Fail,41.75060829,-87.65359464
618,2253164,YATAI,Risk 1 (High),6230 N BROADWAY ,60660,2019-01-25T00:00:00,Pass w/ Conditions,41.99546098,-87.66057971
619,2253160,BROKEN BARREL,Risk 1 (High),2548 N SOUTHPORT AVE ,60614,2019-01-25T00:00:00,Pass w/ Conditions,41.92848548,-87.66357736
620,2253162,SUBWAY 10266,Risk 1 (High),3125 S ASHLAND AVE ,60608,2019-01-25T00:00:00,Pass w/ Conditions,41.83708682,-87.66558285
621,2253167,MC DONALDS,Risk 2 (Medium),3560 N CICERO AVE ,60641,2019-01-25T00:00:00,Pass w/ Conditions,41.94607533,-87.74720859
622,2253158,M BURGER,Risk 2 (Medium),5 W ONTARIO ST BLDG ,60654,2019-01-25T00:00:00,Pass,41.89315681,-87.62835993
623,2253159,STAX CAFE,Risk 1 (High),1401 W TAYLOR ST ,60607,2019-01-25T00:00:00,Pass,41.86922879,-87.66170015
624,2253165,JASMINE RICE,Risk 1 (High),3103 N Narragansett AVE ,60634,2019-01-25T00:00:00,Pass w/ Conditions,41.93659881,-87.78572818
625,2253157,HALE FAMILY MCDONALD'S,Risk 2 (Medium),2425 E 79TH ST ,60649,2019-01-25T00:00:00,Fail,41.7516336,-87.56516065
626,2253156,"HO FAT LEE CHINESE KITCHEN, I NC.",Risk 1 (High),1114 S KEDZIE AVE ,60612,2019-01-25T00:00:00,Pass w/ Conditions,41.86778017,-87.70585901
627,2253153,ELVIA GAMA,Risk 1 (High),3333 W ARMITAGE AVE ,60647,2019-01-25T00:00:00,Pass w/ Conditions,41.91723545,-87.71165855
628,2253152,AFC SUSHI@JEWEL-OSCO #3241,Risk 1 (High),1341 N PAULINA ST ,60622,2019-01-25T00:00:00,Pass w/ Conditions,41.9062437,-87.66986228
629,2253151,FONTANO'S SUB,Risk 1 (High),2151 W 95TH ST ,60643,2019-01-25T00:00:00,Pass w/ Conditions,41.72090692,-87.67684433
630,2253150,THE MONKEYS PAW,Risk 1 (High),2524 N SOUTHPORT AVE ,60614,2019-01-25T00:00:00,Pass w/ Conditions,41.9278282,-87.66355568
631,2253149,CESAR'S ON BROADWAY,Risk 1 (High),2924-2926 N BROADWAY ,60657,2019-01-25T00:00:00,Pass w/ Conditions,41.93563186,-87.64439808
632,2253154,D-4 RESTAURANT,Risk 1 (High),5806 N WESTERN AVE ,60659,2019-01-25T00:00:00,Pass w/ Conditions,41.98706947,-87.6897051
633,2253145,SEVEN TREASURES,Risk 1 (High),2312 S WENTWORTH AVE ,60616,2019-01-25T00:00:00,Fail,41.85055641,-87.63211142
634,2253147,GIORDANO'S OF BEVERLY,Risk 1 (High),9613 S WESTERN AVE ,60643,2019-01-25T00:00:00,Pass,41.71868264,-87.68184758
635,2253146,AFC Sushi @ Jewel Osco #2508,Risk 1 (High),1763 W HOWARD ST ,60626,2019-01-25T00:00:00,Pass,42.01928855,-87.67505851
636,2253138,GEORGE HOT DOGS,Risk 1 (High),2612 S KEDZIE AVE ,60623,2019-01-25T00:00:00,Pass w/ Conditions,41.84408464,-87.70517689
637,2253139,Subway,Risk 1 (High),5150 W Belmont AVE ,60641,2019-01-25T00:00:00,Pass,41.93881423,-87.75626562
638,2253137,SWEET MAPLE CAFE,Risk 1 (High),1339 W TAYLOR ST ,60607,2019-01-25T00:00:00,Pass w/ Conditions,41.86924274,-87.66079657
639,2253135,SOUTH SHORE BREW,Risk 1 (High),7101 S YATES BLVD ,60649,2019-01-25T00:00:00,Fail,41.76627633,-87.56634042
640,2253130,HEARTY CAFE PANCAKE HOUSE,Risk 1 (High),9623 S WESTERN AVE ,60643,2019-01-25T00:00:00,Pass w/ Conditions,41.71839819,-87.68183837
641,2253134,SAIGON SISTERS,Risk 1 (High),131 N Clinton ST ,60661,2019-01-25T00:00:00,Pass w/ Conditions,41.88418751,-87.64111967
642,2253132,BIA'S CAFETERIA MARIANAO II,Risk 1 (High),6401 W ADDISON ST ,60634,2019-01-25T00:00:00,Pass w/ Conditions,41.94555292,-87.78636821
643,2253128,THE HAPPY LOBSTER,Risk 1 (High),131 N CLINTON ST ,60661,2019-01-25T00:00:00,Not Ready,41.88418751,-87.64111967
644,2253124,HOMI MALI,Risk 1 (High),1546 - 1548 W CHICAGO AVE ,60642,2019-01-25T00:00:00,Not Ready,41.89619237,-87.66677231
645,2253123,TACO BELL,Risk 1 (High),4523 W NORTH AVE ,60639,2019-01-25T00:00:00,Pass w/ Conditions,41.90959614,-87.73970064
646,2253117,LION HEAD PUB/ THE APARTMENT,Risk 1 (High),2251 N LINCOLN AVE ,60614,2019-01-25T00:00:00,Pass w/ Conditions,41.92310994,-87.64528428
647,2253118,CHICAGO GRIND,Risk 2 (Medium),5256 N BROADWAY ,60640,2019-01-25T00:00:00,Pass w/ Conditions,41.97799421,-87.6600612
648,2253113,CHICAGO GRIND,Risk 1 (High),5256 N BROADWAY ,60640,2019-01-25T00:00:00,Out of Business,41.97799421,-87.6600612
649,2253115,CASA DEL SOL,Risk 1 (High),8918 S COMMERCIAL AVE ,60617,2019-01-25T00:00:00,Fail,41.73312627,-87.55147733
650,2253114,FLIP CREPES,Risk 1 (High),131 N CLINTON ST ,60661,2019-01-25T00:00:00,Pass w/ Conditions,41.88418751,-87.64111967
651,2253110,Snappy Convenience Center #7,Risk 1 (High),3960 W IRVING PARK RD ,60618,2019-01-25T00:00:00,Fail,41.95375843,-87.72755892
652,2253119,ORIGINAL PANCAKE HOUSE,Risk 1 (High),10437 S WESTERN AVE ,60643,2019-01-25T00:00:00,Fail,41.70344854,-87.68138191
653,2253112,SABOR A GLORIA,Risk 1 (High),4208 N MILWAUKEE AVE ,60641,2019-01-25T00:00:00,Pass w/ Conditions,41.95722361,-87.75170425
654,2253111,CHICAGO GRIND,Risk 1 (High),5256 N BROADWAY ,60640,2019-01-25T00:00:00,Pass w/ Conditions,41.97799421,-87.6600612
655,2253121,MEAN BAO,Risk 1 (High),1139 W TAYLOR ST ,60607,2019-01-25T00:00:00,Pass w/ Conditions,41.86932255,-87.65574774
656,2253116,SUBWAY,Risk 1 (High),4032 W 26TH ST ,60623,2019-01-25T00:00:00,Pass w/ Conditions,41.84434188,-87.72603272
657,2253108,NEW PINE VALLEY RESTAURANT,Risk 1 (High),1600 S PULASKI RD ,60623,2019-01-25T00:00:00,No Entry,41.85877516,-87.72509959
658,2253106,KFC,Risk 1 (High),5230 W MADISON ST ,60644,2019-01-24T00:00:00,Pass,41.88046544,-87.7563471
659,2253180,FOUR MOON TAVERN,Risk 1 (High),1847 W ROSCOE ST ,60657,2019-01-24T00:00:00,No Entry,41.94314096,-87.67570739
660,2253103,SIDECAR LR,Risk 1 (High),1614 W IRVING PARK RD ,60613,2019-01-24T00:00:00,Pass w/ Conditions,41.95439163,-87.66966609
661,2253179,DIAG BAR & GRILL/ 404 WINE BAR,Risk 1 (High),2852-2856 N SOUTHPORT AVE ,60657,2019-01-24T00:00:00,No Entry,41.93405979,-87.66376415
662,2253105,RESTAURANT MARISCOS NAYARIT,Risk 1 (High),4318 W FULLERTON AVE ,60639,2019-01-24T00:00:00,Fail,41.92449645,-87.73488884
663,2253099,GUERRERO'S TACOS AND PIZZA,Risk 1 (High),2534 W DIVISION ST ,60622,2019-01-24T00:00:00,Pass w/ Conditions,41.90309063,-87.69078587
664,2253096,TWIN ANCHORS,Risk 1 (High),1655 N SEDGWICK ST ,60614,2019-01-24T00:00:00,Pass w/ Conditions,41.9126872,-87.63849057
665,2253095,POPEYE'S #831,Risk 1 (High),1959 W HOWARD ST ,60626,2019-01-24T00:00:00,Fail,42.01933311,-87.68002153
666,2253098,DAMENZO'S INC,Risk 1 (High),2322-2324 W TAYLOR ST ,60612,2019-01-24T00:00:00,Pass w/ Conditions,41.86910774,-87.68458376
667,2253094,LOBO BRAVO,Risk 1 (High),1307 S WABASH AVE ,60605,2019-01-24T00:00:00,Pass,41.86551745,-87.62564806
668,2253100,GILHOOLEY'S,Risk 1 (High),3901 W 103RD ST ,60655,2019-01-24T00:00:00,Fail,41.70582355,-87.71853995
669,2253093,BIG TOP RESTAURANT,Risk 1 (High),6348 W HIGGINS AVE ,60630,2019-01-24T00:00:00,Pass,41.97612328,-87.78699375
670,2253085,ROSELAND PIZZA AND TACOS CO,Risk 1 (High),241 E 115TH ST ,60628,2019-01-24T00:00:00,Pass w/ Conditions,41.68527964,-87.61640258
671,2253091,"YUMMY YUMMY NOODLES, INC.",Risk 1 (High),2334 S WENTWORTH AVE ,60616,2019-01-24T00:00:00,Fail,41.849954,-87.6320942
672,2253084,EL BASURERO RESTAURANT INC.,Risk 1 (High),4781 S ARCHER AVE ,60632,2019-01-24T00:00:00,Pass,41.80666846,-87.71612755
673,2253083,"MEATHEAD MANAGEMENT, LLC",Risk 1 (High),3304 N WESTERN AVE ,60618,2019-01-24T00:00:00,Pass w/ Conditions,41.9414762,-87.68837416
674,2253086,PAPA SANTIAGO PIZZERIA,Risk 1 (High),3051 W 26TH ST ,60623,2019-01-24T00:00:00,Pass w/ Conditions,41.8444671,-87.70218434
675,2253082,YES,Risk 1 (High),5211 N DAMEN AVE ,60625,2019-01-24T00:00:00,No Entry,41.97639504,-87.67926724
676,2253079,Italian Pizza Kitchen,Risk 1 (High),823 W EASTMAN ST ,60642,2019-01-24T00:00:00,Fail,41.90734971,-87.64926041
677,2253081,IZAKAYA MITA,Risk 1 (High),1960 N DAMEN AVE ,60647,2019-01-24T00:00:00,Pass w/ Conditions,41.91771656,-87.67776705
678,2253080,KAI SUSHI,Risk 1 (High),3819 N SOUTHPORT AVE ,60613,2019-01-24T00:00:00,Pass,41.95133684,-87.6639883
679,2253077,EL PICOSITO JIBARO INC.,Risk 1 (High),3216 W LAWRENCE AVE ,60625,2019-01-24T00:00:00,Out of Business,41.96855298,-87.70920976
680,2253078,SUBWAY,Risk 1 (High),10319 S PULASKI RD ,60655,2019-01-24T00:00:00,Pass,41.7052743,-87.72074789
681,2253076,PAPI'S TACOS,Risk 1 (High),2320 W TAYLOR ST ,60612,2019-01-24T00:00:00,Pass w/ Conditions,41.86910934,-87.68450516
682,2253069,DOUBLETREE BY HILTON CHICAGO-MAGNIFICENT MILE,Risk 1 (High),300 E OHIO ST ,60611,2019-01-24T00:00:00,Out of Business,41.89271058,-87.62013066
683,2253073,CHINA CAFE,Risk 1 (High),4818 N SHERIDAN RD ,60640,2019-01-24T00:00:00,Fail,41.96967995,-87.65498242
684,2253070,MUNCHIES,Risk 2 (Medium),3900 W MADISON ST ,60624,2019-01-24T00:00:00,Pass w/ Conditions,41.88086516,-87.72337597
685,2253071,"TACO BURRITO KING I, INC.",Risk 1 (High),3216 N HARLEM AVE ,60634,2019-01-24T00:00:00,Pass w/ Conditions,41.93853493,-87.80691268
686,2253075,TAQUERIA EL ARCO #2,Risk 1 (High),2462 S BLUE ISLAND AVE ,60608,2019-01-24T00:00:00,Pass w/ Conditions,41.8476772,-87.67831668
687,2253072,PHIL'S PIZZA D'ORO,Risk 1 (High),5800 N MILWAUKEE AVE ,60646,2019-01-24T00:00:00,Pass w/ Conditions,41.98684368,-87.77812273
688,2253060,SHARKS FISH & CHICKEN,Risk 2 (Medium),3900 W MADISON ST ,60624,2019-01-24T00:00:00,Out of Business,41.88086516,-87.72337597
689,2253064,EL BURRITO AMIGO,Risk 1 (High),5238 W GRAND AVE ,60639,2019-01-24T00:00:00,Pass w/ Conditions,41.91729672,-87.75726362
690,2253062,Subway,Risk 1 (High),236 S State ST ,60604,2019-01-24T00:00:00,Pass w/ Conditions,41.87856527,-87.62783522
691,2253061,TAQUERIA DON CHILO,Risk 1 (High),10643 S HALSTED ST ,60628,2019-01-24T00:00:00,Pass,41.70018568,-87.6424774
692,2253059,DIANA' FOOD & RESTAURANT,Risk 1 (High),1000 N FRANCISCO AVE ,60622,2019-01-24T00:00:00,Pass w/ Conditions,41.8993212,-87.69940879
693,2253066,WESTERN CAFE,Risk 1 (High),5710 N WESTERN AVE ,60659,2019-01-24T00:00:00,Pass w/ Conditions,41.98536153,-87.68965151
694,2253058,LALO  RESTAURANT,Risk 1 (High),4126 W 26TH ST ,60623,2019-01-24T00:00:00,Out of Business,41.8443147,-87.72817992
695,2253056,OPEN OUTCRY,Risk 1 (High),10932 S WESTERN AVE ,60643,2019-01-24T00:00:00,Pass w/ Conditions,41.69462309,-87.68139382
696,2253053,NEW CHINA BUFFET,Risk 1 (High),3246 W ADDISON ST ,60618,2019-01-24T00:00:00,Pass,41.9467169,-87.70967187
697,2253057,CHINA TOWN RESTAURANT,Risk 1 (High),207 W CERMAK RD ,60616,2019-01-24T00:00:00,Fail,41.85273709,-87.63236961
698,2253052,THE GOOD LIFE SOUL FOOD RESTAURANT,Risk 1 (High),11142 S HALSTED ST ,60628,2019-01-24T00:00:00,Pass w/ Conditions,41.69107683,-87.64249046
699,2253050,TAQUERIA VALPARAISO,Risk 1 (High),10500 S WESTERN AVE ,60643,2019-01-24T00:00:00,Pass,41.70263855,-87.68164578
700,2253047,FLAMING WOK & GRILL,Risk 1 (High),903 N HALSTED ST ,60642,2019-01-24T00:00:00,Pass,41.89910985,-87.64773276
701,2261284,DOUBLETREE BY HILTON CHICAGO-MAGNIFICENT MILE,Risk 1 (High),300 E OHIO ST ,60611,2019-01-24T00:00:00,Pass w/ Conditions,41.89271058,-87.62013066
702,2253045,SHAWARMA STOP,Risk 1 (High),947 W WELLINGTON AVE ,60657,2019-01-24T00:00:00,Pass w/ Conditions,41.93617191,-87.65340849
703,2253044,EL REY,Risk 1 (High),3658 W LAWRENCE AVE ,60625,2019-01-24T00:00:00,Out of Business,41.96843263,-87.72063796
704,2253051,DOUBLETREE BY HILTON CHICAGO-MAGNIFICENT MILE,Risk 1 (High),300 E OHIO ST ,60611,2019-01-24T00:00:00,Pass w/ Conditions,41.89271058,-87.62013066
705,2253042,THE SEDGWICK STOP,Risk 1 (High),1612 N SEDGWICK ST ,60614,2019-01-24T00:00:00,Pass w/ Conditions,41.91150903,-87.63875223
706,2253041,TORCHIO,Risk 1 (High),738 N WELLS ST ,60654,2019-01-24T00:00:00,Pass,41.89592017,-87.63433036
707,2253040,TORCHIO,Risk 1 (High),738 N WELLS ST ,60654,2019-01-24T00:00:00,Pass,41.89592017,-87.63433036
708,2253049,UNCLE REMUS,Risk 1 (High),4731 W MADISON ST ,60644,2019-01-24T00:00:00,Fail,41.88040118,-87.74408952
709,2253029,NUK'S DINER,Risk 1 (High),4731 W MADISON ST ,60644,2019-01-24T00:00:00,Out of Business,41.88040118,-87.74408952
710,2253028,TAQUERIA LOS COMALES #1 INC,Risk 1 (High),3141 W 26TH ST ,60623,2019-01-24T00:00:00,Fail,41.84441606,-87.70421001
711,2253022,BLISS RESTO,Risk 1 (High),1522-1526 W MONTROSE AVE ,60613,2019-01-24T00:00:00,Fail,41.96170895,-87.66875485
712,2253026,SUBWAY 50886,Risk 1 (High),1234 N HALSTED ST ,60642,2019-01-24T00:00:00,Pass w/ Conditions,41.90450211,-87.64826687
713,2253021,RESTAURANTE SALVADORENO OLOCUILTA INC,Risk 1 (High),3658 W LAWRENCE AVE ,60625,2019-01-24T00:00:00,Fail,41.96843263,-87.72063796
714,2253020,SBARRO,Risk 1 (High),333 S STATE ST ,60604,2019-01-24T00:00:00,Pass w/ Conditions,41.87739694,-87.62751493
715,2253019,WAFFLES,Risk 1 (High),1104 W MADISON ST ,60607,2019-01-24T00:00:00,Pass,41.88177322,-87.65468908
716,2253027,DUNKIN DONUTS BASKIN ROBBINS,Risk 2 (Medium),500 W ROOSEVELT RD ,60607,2019-01-24T00:00:00,Pass,41.86736269,-87.63929319
717,2252952,LINCOLN AVENUE SOCIAL,Risk 1 (High),2263 N LINCOLN AVE ,60614,2019-01-24T00:00:00,Pass w/ Conditions,41.92336295,-87.64563775
718,2253016,MARTYRS',Risk 1 (High),3855 N LINCOLN AVE ,60613,2019-01-23T00:00:00,No Entry,41.95203002,-87.67710953
719,2253015,MRS MURPHYS AND SONS IRISH  BISTRO,Risk 1 (High),3905 N LINCOLN AVE ,60613,2019-01-23T00:00:00,No Entry,41.95255855,-87.67747503
720,2253012,KIRKWOOD BAR & GRILL,Risk 1 (High),2934-36 N SHEFFIELD AVE ,60657,2019-01-23T00:00:00,Pass w/ Conditions,41.93546443,-87.65410203
721,2253178,VAUGHAN'S PUB,Risk 1 (High),2917 N SHEFFIELD AVE ,60657,2019-01-23T00:00:00,No Entry,41.93500236,-87.65379237
722,2253176,MATSUYA JAPANESE RESTAURANT,Risk 1 (High),3242 N CLARK ST ,60657,2019-01-23T00:00:00,No Entry,41.94097203,-87.6516706
723,2253007,DONA BLANCO MEXICA RESTAURANT,Risk 1 (High),3641 W FULLERTON AVE ,60647,2019-01-23T00:00:00,Out of Business,41.92447371,-87.71866668
724,2253006,I DREAM OF FALAFEL,Risk 1 (High),243 S WABASH AVE ,60604,2019-01-23T00:00:00,Pass w/ Conditions,41.87849644,-87.6259421
725,2253008,OSV,Risk 1 (High),201-209 E 75TH ST ,60619,2019-01-23T00:00:00,Fail,41.75821229,-87.61984215
726,2253005,PALLAS GRILL,Risk 1 (High),4570 N BROADWAY ,60640,2019-01-23T00:00:00,Pass w/ Conditions,41.96527014,-87.65755429
727,2253004,SUB BROTHER,Risk 1 (High),1417 1/2 W MORSE AVE ,60626,2019-01-23T00:00:00,Pass w/ Conditions,42.00778458,-87.66663652
728,2253003,SUN-SUB & PHILLY'S,Risk 1 (High),5542 W NORTH AVE ,60639,2019-01-23T00:00:00,Pass w/ Conditions,41.90949805,-87.76480716
729,2252998,ELVIA GAMA,Risk 1 (High),3333 W ARMITAGE AVE ,60647,2019-01-23T00:00:00,Fail,41.91723545,-87.71165855
730,2253010,SZECHUAN CUISINE,Risk 1 (High),2414 S WENTWORTH AVE ,60616,2019-01-23T00:00:00,Fail,41.84866813,-87.63206176
731,2252999,HIM SHIKAR,Risk 1 (High),6031 N CICERO AVE ,60646,2019-01-23T00:00:00,Pass w/ Conditions,41.99081933,-87.74818192
732,2253013,COLUTAS PIZZA,Risk 1 (High),3239 N HARLEM AVE ,60634,2019-01-23T00:00:00,Pass w/ Conditions,41.93916083,-87.80664111
733,2253002,BEST BBQ,Risk 1 (High),1648 W 115TH ST ,60643,2019-01-23T00:00:00,Fail,41.68489261,-87.66364029
734,2252996,EGGSPERIENCE,Risk 1 (High),33 W ONTARIO ST ,60654,2019-01-23T00:00:00,Fail,41.89314176,-87.6295306
735,2252997,Subway,Risk 1 (High),511 N McClurg CT BLDG ,60611,2019-01-23T00:00:00,Pass w/ Conditions,41.89145141,-87.61753456
736,2253011,SUNSET PHO CAFE,Risk 1 (High),5726 N WESTERN AVE ,60659,2019-01-23T00:00:00,Pass w/ Conditions,41.98581391,-87.68966419
737,2252993,GUEY LON RESTAURANT,Risk 1 (High),3968 N ELSTON AVE ,60618,2019-01-23T00:00:00,Fail,41.95333251,-87.71879172
738,2252995,A.P. DELI INC. XI,Risk 1 (High),5251 W MADISON ST ,60644,2019-01-23T00:00:00,Pass w/ Conditions,41.88023794,-87.75707525
739,2252991,HQ HOWARD QUINTERO,Risk 1 (High),4114 N KEDZIE AVE ,60618,2019-01-23T00:00:00,No Entry,41.9561934,-87.70823033
740,2252994,HONG KONG EXPRESS,Risk 1 (High),2703 W CERMAK RD ,60608,2019-01-23T00:00:00,Pass w/ Conditions,41.85182261,-87.69312801
741,2252992,LA MICHOACANA IN LOGAN SQUARE,Risk 1 (High),3740 W FULLERTON AVE ,60647,2019-01-23T00:00:00,Fail,41.92466148,-87.72111624
742,2252989,PORTILLO'S HOT DOGS,Risk 1 (High),100 W ONTARIO ST ,60654,2019-01-23T00:00:00,Pass,41.89333774,-87.6312445
743,2252986,KIKKA,Risk 1 (High),6020 N CICERO AVE ,60646,2019-01-23T00:00:00,Pass w/ Conditions,41.99049477,-87.74847741
744,2252981,FLUB A DUB CHUB'S,Risk 1 (High),3021 N BROADWAY ,60657,2019-01-23T00:00:00,Pass w/ Conditions,41.93714384,-87.64415612
745,2252983,BI BI BOP,Risk 1 (High),24 E JACKSON BLVD ,60604,2019-01-23T00:00:00,Fail,41.87833792,-87.62681985
746,2252985,DAO THAI RESTRAUNT,Risk 1 (High),230 E OHIO ST ,60611,2019-01-23T00:00:00,Pass w/ Conditions,41.89268963,-87.62143836
747,2252978,GREAT BUFFET,Risk 1 (High),2531 W CERMAK RD ,60608,2019-01-23T00:00:00,Pass w/ Conditions,41.85187843,-87.6892473
748,2252977,DOS URBAN CANTINA,Risk 1 (High),2829-2831 W ARMITAGE AVE ,60647,2019-01-23T00:00:00,Pass w/ Conditions,41.91737008,-87.69824926
749,2252974,CHIPOTLE MEXICAN GRILL,Risk 1 (High),2256 N ORCHARD ST ,60614,2019-01-23T00:00:00,Pass w/ Conditions,41.9235184,-87.64641809
750,2252973,CHICAGO GRIND,Risk 2 (Medium),5256 N BROADWAY ,60640,2019-01-23T00:00:00,Not Ready,41.97799421,-87.6600612
751,2252966,ORIGINAL ALPS,Risk 1 (High),3637 W IRVING PARK RD ,60618,2019-01-23T00:00:00,Fail,41.95362464,-87.71931085
752,2252962,CHICAGO GRIND,Risk 1 (High),5256 N BROADWAY ,60640,2019-01-23T00:00:00,Fail,41.97799421,-87.6600612
753,2252959,SUBWAY,Risk 1 (High),205 E OHIO ST ,60611,2019-01-23T00:00:00,Fail,41.89245401,-87.62241522
754,2252958,SIMPLY IT,Risk 1 (High),2269 N LINCOLN AVE ,60614,2019-01-23T00:00:00,Pass,41.92348958,-87.64581444
755,2252956,Subway,Risk 1 (High),236 S State ST ,60604,2019-01-23T00:00:00,Fail,41.87856527,-87.62783522
756,2252955,CAMBDEN FOODS CO.,Risk 1 (High),5700 S CICERO AVE ,60638,2019-01-23T00:00:00,Pass,41.78932932,-87.74164564
757,2252951,TAQUERIA PRIMO CHUKIS UPTOWN,Risk 1 (High),1708-1710 W LAWRENCE AVE ,60640,2019-01-22T00:00:00,Pass w/ Conditions,41.9689665,-87.67143451
758,2252948,TAQUERIA LOS PORTALES,Risk 1 (High),1418 W MORSE AVE ,60626,2019-01-22T00:00:00,Fail,42.00800274,-87.66671916
759,2252946,PHIL'S PIZZA D'ORO,Risk 1 (High),5800 N MILWAUKEE AVE ,60646,2019-01-22T00:00:00,No Entry,41.98684368,-87.77812273
760,2252950,WILEY'S CHICKEN & RIBS,Risk 1 (High),3853 W Madison ST ,60624,2019-01-22T00:00:00,Fail,41.88065243,-87.72289201
761,2252945,"GRAND CHINESE KITCHEN , CHICAGO",Risk 1 (High),100 W 87TH ST ,60620,2019-01-22T00:00:00,Pass w/ Conditions,41.73637382,-87.62723156
762,2252942,SUBWAY,Risk 1 (High),1958 W CHICAGO AVE ,60622,2019-01-22T00:00:00,Pass w/ Conditions,41.89602257,-87.67699522
763,2252938,BYRONS HOT DOG INC,Risk 1 (High),1701 W LAWRENCE AVE ,60640,2019-01-22T00:00:00,Pass w/ Conditions,41.96875147,-87.67109479
764,2252937,SKY CHOP SUEY INC,Risk 1 (High),8616 S KEDZIE AVE ,60652,2019-01-22T00:00:00,Pass,41.73641424,-87.70219239
765,2252941,SPICY MEX,Risk 1 (High),3925 N LINCOLN AVE ,60613,2019-01-22T00:00:00,Pass w/ Conditions,41.9531257,-87.67787379
766,2252936,PIZZERIA DEEPO,Risk 2 (Medium),1742 W 99TH ST ,60643,2019-01-22T00:00:00,No Entry,41.714,-87.66706868
767,2252947,THE MOZART,Risk 1 (High),2826-2830 W ARMITAGE AVE ,60647,2019-01-22T00:00:00,Pass w/ Conditions,41.91758858,-87.69836276
768,2252940,EVERGREEN RESTAURANT,Risk 1 (High),2411 S WENTWORTH AVE ,60616,2019-01-22T00:00:00,Pass w/ Conditions,41.84880484,-87.63177773
769,2253001,SUN-SUB & PHILLY'S,Risk 1 (High),5542 W NORTH AVE ,60639,2019-01-22T00:00:00,No Entry,41.90949805,-87.76480716
770,2252939,"CHICAGO WINGS AROUND THE WORLD 61ST & HALSTED,INC",Risk 1 (High),748 W 61ST ST ,60621,2019-01-22T00:00:00,Fail,41.78350298,-87.64438638
771,2252935,EL MUCHACHO ALEGRE,Risk 1 (High),3036 N PULASKI RD ,60641,2019-01-22T00:00:00,Pass w/ Conditions,41.93652108,-87.72725885
772,2252928,LITTLE CAESAR'S PIZZA,Risk 2 (Medium),4445 N PULASKI RD ,60630,2019-01-22T00:00:00,Pass w/ Conditions,41.96223481,-87.72771372
773,2252927,SOUTH SHORE BREW,Risk 1 (High),7101 S YATES BLVD ,60649,2019-01-22T00:00:00,Not Ready,41.76627633,-87.56634042
774,2252930,MOLE VILLAGE RESTAURANT,Risk 1 (High),2302 S BLUE ISLAND AVE ,60608,2019-01-22T00:00:00,Pass w/ Conditions,41.850428,-87.67115535
775,2252924,EL BASURERO RESTAURANT INC.,Risk 1 (High),4781 S ARCHER AVE ,60632,2019-01-22T00:00:00,Fail,41.80666846,-87.71612755
776,2252943,China Wok Restuarant,Risk 1 (High),3106 N CENTRAL AVE ,60634,2019-01-22T00:00:00,Fail,41.93701055,-87.76659046
